[{"fields": {"kind": "PPLA2", "description": "", "parent": 858787, "creator": 1, "image": "img/locations/nowhere.jpg", "longitude": 20.44599, "names": [], "country_code": "PL", "latitude": 52.0488, "date_created": "2015-03-25T10:39:00.729Z", "users": [1], "population": 41179, "slug": "zyrardow-pl", "name": "\u017byrard\u00f3w"}, "model": "locations.location", "pk": 752967}, {"fields": {"kind": "PPL", "description": "", "parent": 858787, "creator": 1, "image": "img/locations/nowhere.jpg", "longitude": 21.16018, "names": [], "country_code": "PL", "latitude": 52.30376, "date_created": "2015-03-25T10:39:00.848Z", "users": [1], "population": 17518, "slug": "zielonka-pl", "name": "Zielonka"}, "model": "locations.location", "pk": 753276}, {"fields": {"kind": "PPLA2", "description": "", "parent": 858785, "creator": 1, "image": "img/locations/nowhere.jpg", "longitude": 23.25196, "names": [], "country_code": "PL", "latitude": 50.72314, "date_created": "2015-03-25T10:38:54.771Z", "users": [1], "population": 66034, "slug": "zamosc-pl", "name": "Zamo\u015b\u0107"}, "model": "locations.location", "pk": 753866}, {"fields": {"kind": "PPL", "description": "", "parent": 858789, "creator": 1, "image": "img/locations/nowhere.jpg", "longitude": 22.24319, "names": [], "country_code": "PL", "latitude": 52.9855, "date_created": "2015-03-25T10:39:18.148Z", "users": [1], "population": 22857, "slug": "zambrow-pl", "name": "Zambr\u00f3w"}, "model": "locations.location", "pk": 753895}, {"fields": {"kind": "PPLA3", "description": "", "parent": 858787, "creator": 1, "image": "img/locations/nowhere.jpg", "longitude": 21.10539, "names": [], "country_code": "PL", "latitude": 52.29271, "date_created": "2015-03-25T10:39:00.971Z", "users": [1], "population": 23473, "slug": "zabki-pl", "name": "Z\u0105bki"}, "model": "locations.location", "pk": 754351}, {"fields": {"kind": "PPL", "description": "", "parent": 858787, "creator": 1, "image": "img/locations/nowhere.jpg", "longitude": 21.4584, "names": [], "country_code": "PL", "latitude": 52.59278, "date_created": "2015-03-25T10:39:01.102Z", "users": [1], "population": 26628, "slug": "wyszkow-pl", "name": "Wyszk\u00f3w"}, "model": "locations.location", "pk": 754454}, {"fields": {"kind": "PPLA2", "description": "", "parent": 858787, "creator": 1, "image": "img/locations/nowhere.jpg", "longitude": 21.24207, "names": [], "country_code": "PL", "latitude": 52.34006, "date_created": "2015-03-25T10:39:01.234Z", "users": [1], "population": 36592, "slug": "wolomin-pl", "name": "Wo\u0142omin"}, "model": "locations.location", "pk": 754800}, {"fields": {"kind": "PPLA2", "description": "", "parent": 858786, "creator": 1, "image": "img/locations/nowhere.jpg", "longitude": 20.06473, "names": [], "country_code": "PL", "latitude": 49.98738, "date_created": "2015-03-25T10:38:57.621Z", "users": [1], "population": 18677, "slug": "wieliczka-pl", "name": "Wieliczka"}, "model": "locations.location", "pk": 755889}, {"fields": {"kind": "PPLC", "description": "", "parent": 858787, "creator": 1, "image": "img/locations/nowhere.jpg", "longitude": 21.01178, "names": [], "country_code": "PL", "latitude": 52.22977, "date_created": "2015-03-25T10:39:01.367Z", "users": [1, 17, 16], "population": 1702139, "slug": "warsaw-pl", "name": "Warsaw"}, "model": "locations.location", "pk": 756135}, {"fields": {"kind": "PPLA2", "description": "", "parent": 3337493, "creator": 1, "image": "img/locations/nowhere.jpg", "longitude": 20.00855, "names": [], "country_code": "PL", "latitude": 51.53131, "date_created": "2015-03-25T10:39:49.063Z", "users": [1], "population": 67197, "slug": "tomaszow-mazowiecki-pl", "name": "Tomasz\u00f3w Mazowiecki"}, "model": "locations.location", "pk": 756867}, {"fields": {"kind": "PPLA2", "description": "", "parent": 858785, "creator": 1, "image": "img/locations/nowhere.jpg", "longitude": 23.41616, "names": [], "country_code": "PL", "latitude": 50.44767, "date_created": "2015-03-25T10:38:54.934Z", "users": [1], "population": 20261, "slug": "tomaszow-lubelski-pl", "name": "Tomasz\u00f3w Lubelski"}, "model": "locations.location", "pk": 756868}, {"fields": {"kind": "PPLA2", "description": "", "parent": 858786, "creator": 1, "image": "img/locations/nowhere.jpg", "longitude": 20.98698, "names": [], "country_code": "PL", "latitude": 50.01381, "date_created": "2015-03-25T10:38:57.743Z", "users": [1], "population": 117799, "slug": "tarnow-pl", "name": "Tarn\u00f3w"}, "model": "locations.location", "pk": 757026}, {"fields": {"kind": "PPLA2", "description": "", "parent": 858788, "creator": 1, "image": "img/locations/nowhere.jpg", "longitude": 21.67937, "names": [], "country_code": "PL", "latitude": 50.57304, "date_created": "2015-03-25T10:39:12.857Z", "users": [1], "population": 50459, "slug": "tarnobrzeg-pl", "name": "Tarnobrzeg"}, "model": "locations.location", "pk": 757033}, {"fields": {"kind": "PPLA3", "description": "", "parent": 858791, "creator": 1, "image": "img/locations/nowhere.jpg", "longitude": 20.98747, "names": [], "country_code": "PL", "latitude": 53.56259, "date_created": "2015-03-25T10:39:27.404Z", "users": [1], "population": 26044, "slug": "szczytno-pl", "name": "Szczytno"}, "model": "locations.location", "pk": 757357}, {"fields": {"kind": "PPL", "description": "", "parent": 858785, "creator": 1, "image": "img/locations/nowhere.jpg", "longitude": 22.69621, "names": [], "country_code": "PL", "latitude": 51.21898, "date_created": "2015-03-25T10:38:55.057Z", "users": [1], "population": 40050, "slug": "swidnik-pl", "name": "\u015awidnik"}, "model": "locations.location", "pk": 757692}, {"fields": {"kind": "PPLA2", "description": "", "parent": 858789, "creator": 1, "image": "img/locations/nowhere.jpg", "longitude": 22.93087, "names": [], "country_code": "PL", "latitude": 54.11175, "date_created": "2015-03-25T10:39:18.499Z", "users": [1], "population": 69222, "slug": "suwalki-pl", "name": "Suwa\u0142ki"}, "model": "locations.location", "pk": 757718}, {"fields": {"kind": "PPLA3", "description": "", "parent": 858787, "creator": 1, "image": "img/locations/nowhere.jpg", "longitude": 21.26902, "names": [], "country_code": "PL", "latitude": 52.25221, "date_created": "2015-03-25T10:39:01.622Z", "users": [1], "population": 18414, "slug": "sulejowek-pl", "name": "Sulej\u00f3wek"}, "model": "locations.location", "pk": 757809}, {"fields": {"kind": "PPLA2", "description": "", "parent": 858790, "creator": 1, "image": "img/locations/nowhere.jpg", "longitude": 21.16593, "names": [], "country_code": "PL", "latitude": 50.56307, "date_created": "2015-03-25T10:39:22.897Z", "users": [1], "population": 16137, "slug": "staszow-pl", "name": "Stasz\u00f3w"}, "model": "locations.location", "pk": 758252}, {"fields": {"kind": "PPLA2", "description": "", "parent": 858790, "creator": 1, "image": "img/locations/nowhere.jpg", "longitude": 21.07126, "names": [], "country_code": "PL", "latitude": 51.0374, "date_created": "2015-03-25T10:39:23.306Z", "users": [1], "population": 53739, "slug": "starachowice-pl", "name": "Starachowice"}, "model": "locations.location", "pk": 758390}, {"fields": {"kind": "PPLA2", "description": "", "parent": 858788, "creator": 1, "image": "img/locations/nowhere.jpg", "longitude": 22.05334, "names": [], "country_code": "PL", "latitude": 50.58286, "date_created": "2015-03-25T10:39:13.187Z", "users": [1], "population": 66495, "slug": "stalowa-wola-pl", "name": "Stalowa Wola"}, "model": "locations.location", "pk": 758445}, {"fields": {"kind": "PPLA2", "description": "", "parent": 858787, "creator": 1, "image": "img/locations/nowhere.jpg", "longitude": 22.25307, "names": [], "country_code": "PL", "latitude": 52.40677, "date_created": "2015-03-25T10:39:01.896Z", "users": [1], "population": 18241, "slug": "sokolow-podlaski-pl", "name": "Soko\u0142\u00f3w Podlaski"}, "model": "locations.location", "pk": 758626}, {"fields": {"kind": "PPLA3", "description": "", "parent": 858789, "creator": 1, "image": "img/locations/nowhere.jpg", "longitude": 23.50228, "names": [], "country_code": "PL", "latitude": 53.40715, "date_created": "2015-03-25T10:39:18.909Z", "users": [1], "population": 19079, "slug": "sokolka-pl", "name": "Sok\u00f3\u0142ka"}, "model": "locations.location", "pk": 758651}, {"fields": {"kind": "PPLA2", "description": "", "parent": 858787, "creator": 1, "image": "img/locations/nowhere.jpg", "longitude": 20.23838, "names": [], "country_code": "PL", "latitude": 52.22944, "date_created": "2015-03-25T10:39:02.150Z", "users": [1], "population": 38267, "slug": "sochaczew-pl", "name": "Sochaczew"}, "model": "locations.location", "pk": 758682}, {"fields": {"kind": "PPLA2", "description": "", "parent": 3337493, "creator": 1, "image": "img/locations/nowhere.jpg", "longitude": 20.15837, "names": [], "country_code": "PL", "latitude": 51.95485, "date_created": "2015-03-25T10:39:49.566Z", "users": [1], "population": 49042, "slug": "skierniewice-pl", "name": "Skierniewice"}, "model": "locations.location", "pk": 759123}, {"fields": {"kind": "PPLA2", "description": "", "parent": 858790, "creator": 1, "image": "img/locations/nowhere.jpg", "longitude": 20.87162, "names": [], "country_code": "PL", "latitude": 51.11311, "date_created": "2015-03-25T10:39:23.760Z", "users": [1], "population": 49410, "slug": "skarzysko-kamienna-pl", "name": "Skar\u017cysko-Kamienna"}, "model": "locations.location", "pk": 759141}, {"fields": {"kind": "PPLA3", "description": "", "parent": 858789, "creator": 1, "image": "img/locations/nowhere.jpg", "longitude": 22.86231, "names": [], "country_code": "PL", "latitude": 52.42719, "date_created": "2015-03-25T10:39:19.281Z", "users": [1], "population": 15421, "slug": "siemiatycze-pl", "name": "Siemiatycze"}, "model": "locations.location", "pk": 759320}, {"fields": {"kind": "PPL", "description": "", "parent": 858787, "creator": 1, "image": "img/locations/nowhere.jpg", "longitude": 22.29006, "names": [], "country_code": "PL", "latitude": 52.16772, "date_created": "2015-03-25T10:39:02.414Z", "users": [1], "population": 77185, "slug": "siedlce-pl", "name": "Siedlce"}, "model": "locations.location", "pk": 759412}, {"fields": {"kind": "PPLA2", "description": "", "parent": 858788, "creator": 1, "image": "img/locations/nowhere.jpg", "longitude": 22.2056, "names": [], "country_code": "PL", "latitude": 49.55573, "date_created": "2015-03-25T10:39:13.490Z", "users": [1], "population": 39684, "slug": "sanok-pl", "name": "Sanok"}, "model": "locations.location", "pk": 759591}, {"fields": {"kind": "PPLA2", "description": "", "parent": 858790, "creator": 1, "image": "img/locations/nowhere.jpg", "longitude": 21.74898, "names": [], "country_code": "PL", "latitude": 50.68265, "date_created": "2015-03-25T10:39:24.180Z", "users": [1], "population": 25087, "slug": "sandomierz-pl", "name": "Sandomierz"}, "model": "locations.location", "pk": 759603}, {"fields": {"kind": "PPLA", "description": "", "parent": 858788, "creator": 1, "image": "img/locations/nowhere.jpg", "longitude": 21.99901, "names": [], "country_code": "PL", "latitude": 50.04132, "date_created": "2015-03-25T10:39:14.025Z", "users": [1], "population": 158382, "slug": "rzeszow-pl", "name": "Rzesz\u00f3w"}, "model": "locations.location", "pk": 759734}, {"fields": {"kind": "PPLA2", "description": "", "parent": 858788, "creator": 1, "image": "img/locations/nowhere.jpg", "longitude": 21.60891, "names": [], "country_code": "PL", "latitude": 50.05229, "date_created": "2015-03-25T10:39:14.349Z", "users": [1], "population": 15279, "slug": "ropczyce-pl", "name": "Ropczyce"}, "model": "locations.location", "pk": 760343}, {"fields": {"kind": "PPLA3", "description": "", "parent": 3337493, "creator": 1, "image": "img/locations/nowhere.jpg", "longitude": 20.25493, "names": [], "country_code": "PL", "latitude": 51.76437, "date_created": "2015-03-25T10:39:50.197Z", "users": [1], "population": 17770, "slug": "rawa-mazowiecka-pl", "name": "Rawa Mazowiecka"}, "model": "locations.location", "pk": 760584}, {"fields": {"kind": "PPLA3", "description": "", "parent": 858785, "creator": 1, "image": "img/locations/nowhere.jpg", "longitude": 22.61667, "names": [], "country_code": "PL", "latitude": 51.78333, "date_created": "2015-03-25T10:38:55.246Z", "users": [1], "population": 16071, "slug": "radzyn-podlaski-pl", "name": "Radzy\u0144 Podlaski"}, "model": "locations.location", "pk": 760680}, {"fields": {"kind": "PPLA2", "description": "", "parent": 858787, "creator": 1, "image": "img/locations/nowhere.jpg", "longitude": 21.14714, "names": [], "country_code": "PL", "latitude": 51.40253, "date_created": "2015-03-25T10:39:02.679Z", "users": [1], "population": 226794, "slug": "radom-pl", "name": "Radom"}, "model": "locations.location", "pk": 760778}, {"fields": {"kind": "PPLA2", "description": "", "parent": 858787, "creator": 1, "image": "img/locations/nowhere.jpg", "longitude": 21.08276, "names": [], "country_code": "PL", "latitude": 52.7025, "date_created": "2015-03-25T10:39:03.043Z", "users": [1], "population": 19039, "slug": "pultusk-pl", "name": "Pu\u0142tusk"}, "model": "locations.location", "pk": 760917}, {"fields": {"kind": "PPLA2", "description": "", "parent": 858785, "creator": 1, "image": "img/locations/nowhere.jpg", "longitude": 21.96939, "names": [], "country_code": "PL", "latitude": 51.41655, "date_created": "2015-03-25T10:38:55.381Z", "users": [1], "population": 49759, "slug": "pulawy-pl", "name": "Pu\u0142awy"}, "model": "locations.location", "pk": 760924}, {"fields": {"kind": "PPLA2", "description": "", "parent": 858788, "creator": 1, "image": "img/locations/nowhere.jpg", "longitude": 22.49408, "names": [], "country_code": "PL", "latitude": 50.05912, "date_created": "2015-03-25T10:39:14.668Z", "users": [1], "population": 15805, "slug": "przeworsk-pl", "name": "Przeworsk"}, "model": "locations.location", "pk": 761131}, {"fields": {"kind": "PPLA2", "description": "", "parent": 858788, "creator": 1, "image": "img/locations/nowhere.jpg", "longitude": 22.76728, "names": [], "country_code": "PL", "latitude": 49.78498, "date_created": "2015-03-25T10:39:15.128Z", "users": [1], "population": 67013, "slug": "przemysl-pl", "name": "Przemy\u015bl"}, "model": "locations.location", "pk": 761168}, {"fields": {"kind": "PPLA2", "description": "", "parent": 858787, "creator": 1, "image": "img/locations/nowhere.jpg", "longitude": 20.88029, "names": [], "country_code": "PL", "latitude": 53.01907, "date_created": "2015-03-25T10:39:03.314Z", "users": [1], "population": 16718, "slug": "przasnysz-pl", "name": "Przasnysz"}, "model": "locations.location", "pk": 761218}, {"fields": {"kind": "PPLA2", "description": "", "parent": 858787, "creator": 1, "image": "img/locations/nowhere.jpg", "longitude": 20.81214, "names": [], "country_code": "PL", "latitude": 52.17072, "date_created": "2015-03-25T10:39:03.602Z", "users": [1], "population": 55371, "slug": "pruszkow-pl", "name": "Pruszk\u00f3w"}, "model": "locations.location", "pk": 761228}, {"fields": {"kind": "PPLA2", "description": "", "parent": 858787, "creator": 1, "image": "img/locations/nowhere.jpg", "longitude": 20.37552, "names": [], "country_code": "PL", "latitude": 52.62348, "date_created": "2015-03-25T10:39:03.898Z", "users": [1], "population": 22217, "slug": "plonsk-pl", "name": "P\u0142o\u0144sk"}, "model": "locations.location", "pk": 762021}, {"fields": {"kind": "PPLA3", "description": "", "parent": 858791, "creator": 1, "image": "img/locations/nowhere.jpg", "longitude": 21.81253, "names": [], "country_code": "PL", "latitude": 53.62744, "date_created": "2015-03-25T10:39:27.846Z", "users": [1], "population": 19232, "slug": "pisz-pl", "name": "Pisz"}, "model": "locations.location", "pk": 762120}, {"fields": {"kind": "PPLA3", "description": "", "parent": 858787, "creator": 1, "image": "img/locations/nowhere.jpg", "longitude": 21.44995, "names": [], "country_code": "PL", "latitude": 51.47604, "date_created": "2015-03-25T10:39:04.195Z", "users": [1], "population": 19966, "slug": "pionki-pl", "name": "Pionki"}, "model": "locations.location", "pk": 762199}, {"fields": {"kind": "PPLA3", "description": "", "parent": 858787, "creator": 1, "image": "img/locations/nowhere.jpg", "longitude": 20.83952, "names": [], "country_code": "PL", "latitude": 52.18435, "date_created": "2015-03-25T10:39:04.508Z", "users": [1], "population": 23290, "slug": "piastow-pl", "name": "Piast\u00f3w"}, "model": "locations.location", "pk": 762381}, {"fields": {"kind": "PPLA2", "description": "", "parent": 858787, "creator": 1, "image": "img/locations/nowhere.jpg", "longitude": 21.02397, "names": [], "country_code": "PL", "latitude": 52.0814, "date_created": "2015-03-25T10:39:04.854Z", "users": [1], "population": 36278, "slug": "piaseczno-pl", "name": "Piaseczno"}, "model": "locations.location", "pk": 762423}, {"fields": {"kind": "PPLA3", "description": "", "parent": 858787, "creator": 1, "image": "img/locations/nowhere.jpg", "longitude": 21.26129, "names": [], "country_code": "PL", "latitude": 52.10577, "date_created": "2015-03-25T10:39:05.228Z", "users": [1], "population": 43388, "slug": "otwock-pl", "name": "Otwock"}, "model": "locations.location", "pk": 762788}, {"fields": {"kind": "PPL", "description": "", "parent": 858787, "creator": 1, "image": "img/locations/nowhere.jpg", "longitude": 21.89507, "names": [], "country_code": "PL", "latitude": 52.80245, "date_created": "2015-03-25T10:39:05.560Z", "users": [1], "population": 22653, "slug": "ostrow-mazowiecka-pl", "name": "Ostr\u00f3w Mazowiecka"}, "model": "locations.location", "pk": 762850}, {"fields": {"kind": "PPLA2", "description": "", "parent": 858790, "creator": 1, "image": "img/locations/nowhere.jpg", "longitude": 21.38525, "names": [], "country_code": "PL", "latitude": 50.92936, "date_created": "2015-03-25T10:39:24.667Z", "users": [1], "population": 73989, "slug": "ostrowiec-swietokrzyski-pl", "name": "Ostrowiec \u015awi\u0119tokrzyski"}, "model": "locations.location", "pk": 762863}, {"fields": {"kind": "PPLA3", "description": "", "parent": 858787, "creator": 1, "image": "img/locations/nowhere.jpg", "longitude": 21.57566, "names": [], "country_code": "PL", "latitude": 53.08621, "date_created": "2015-03-25T10:39:05.871Z", "users": [1], "population": 53740, "slug": "ostroleka-pl", "name": "Ostro\u0142\u0119ka"}, "model": "locations.location", "pk": 762909}, {"fields": {"kind": "PPLA2", "description": "", "parent": 3337493, "creator": 1, "image": "img/locations/nowhere.jpg", "longitude": 20.27827, "names": [], "country_code": "PL", "latitude": 51.37569, "date_created": "2015-03-25T10:39:50.750Z", "users": [1], "population": 22592, "slug": "opoczno-pl", "name": "Opoczno"}, "model": "locations.location", "pk": 763111}, {"fields": {"kind": "PPLA", "description": "", "parent": 858791, "creator": 1, "image": "img/locations/nowhere.jpg", "longitude": 20.49416, "names": [], "country_code": "PL", "latitude": 53.77995, "date_created": "2015-03-25T10:39:28.269Z", "users": [1], "population": 171803, "slug": "olsztyn-pl", "name": "Olsztyn"}, "model": "locations.location", "pk": 763166}, {"fields": {"kind": "PPLA3", "description": "", "parent": 858791, "creator": 1, "image": "img/locations/nowhere.jpg", "longitude": 22.50704, "names": [], "country_code": "PL", "latitude": 54.03374, "date_created": "2015-03-25T10:39:28.727Z", "users": [1], "population": 15923, "slug": "olecko-pl", "name": "Olecko"}, "model": "locations.location", "pk": 763291}, {"fields": {"kind": "PPLA2", "description": "", "parent": 858786, "creator": 1, "image": "img/locations/nowhere.jpg", "longitude": 20.03228, "names": [], "country_code": "PL", "latitude": 49.47783, "date_created": "2015-03-25T10:38:57.867Z", "users": [1], "population": 33763, "slug": "nowy-targ-pl", "name": "Nowy Targ"}, "model": "locations.location", "pk": 763523}, {"fields": {"kind": "PPLA3", "description": "", "parent": 858786, "creator": 1, "image": "img/locations/nowhere.jpg", "longitude": 20.69705, "names": [], "country_code": "PL", "latitude": 49.62177, "date_created": "2015-03-25T10:38:58.006Z", "users": [1], "population": 84376, "slug": "nowy-sacz-pl", "name": "Nowy S\u0105cz"}, "model": "locations.location", "pk": 763534}, {"fields": {"kind": "PPLA3", "description": "", "parent": 858787, "creator": 1, "image": "img/locations/nowhere.jpg", "longitude": 20.71652, "names": [], "country_code": "PL", "latitude": 52.43022, "date_created": "2015-03-25T10:39:06.201Z", "users": [1], "population": 27633, "slug": "nowy-dwor-mazowiecki-pl", "name": "Nowy Dw\u00f3r Mazowiecki"}, "model": "locations.location", "pk": 763556}, {"fields": {"kind": "PPLA2", "description": "", "parent": 858788, "creator": 1, "image": "img/locations/nowhere.jpg", "longitude": 22.13968, "names": [], "country_code": "PL", "latitude": 50.51987, "date_created": "2015-03-25T10:39:15.460Z", "users": [1], "population": 15573, "slug": "nisko-pl", "name": "Nisko"}, "model": "locations.location", "pk": 763829}, {"fields": {"kind": "PPLA2", "description": "", "parent": 858791, "creator": 1, "image": "img/locations/nowhere.jpg", "longitude": 21.30507, "names": [], "country_code": "PL", "latitude": 53.86437, "date_created": "2015-03-25T10:39:29.230Z", "users": [1], "population": 21965, "slug": "mragowo-pl", "name": "Mr\u0105gowo"}, "model": "locations.location", "pk": 764312}, {"fields": {"kind": "PPL", "description": "", "parent": 858787, "creator": 1, "image": "img/locations/nowhere.jpg", "longitude": 20.3841, "names": [], "country_code": "PL", "latitude": 53.11278, "date_created": "2015-03-25T10:39:06.518Z", "users": [1], "population": 29398, "slug": "mlawa-pl", "name": "M\u0142awa"}, "model": "locations.location", "pk": 764634}, {"fields": {"kind": "PPLA2", "description": "", "parent": 858787, "creator": 1, "image": "img/locations/nowhere.jpg", "longitude": 21.57251, "names": [], "country_code": "PL", "latitude": 52.17935, "date_created": "2015-03-25T10:39:06.852Z", "users": [1], "population": 37027, "slug": "minsk-mazowiecki-pl", "name": "Mi\u0144sk Mazowiecki"}, "model": "locations.location", "pk": 764679}, {"fields": {"kind": "PPLA3", "description": "", "parent": 858787, "creator": 1, "image": "img/locations/nowhere.jpg", "longitude": 20.67155, "names": [], "country_code": "PL", "latitude": 52.11879, "date_created": "2015-03-25T10:39:07.182Z", "users": [1], "population": 15784, "slug": "milanowek-pl", "name": "Milan\u00f3wek"}, "model": "locations.location", "pk": 764749}, {"fields": {"kind": "PPL", "description": "", "parent": 858788, "creator": 1, "image": "img/locations/nowhere.jpg", "longitude": 21.4239, "names": [], "country_code": "PL", "latitude": 50.28709, "date_created": "2015-03-25T10:39:15.787Z", "users": [1], "population": 60993, "slug": "mielec-pl", "name": "Mielec"}, "model": "locations.location", "pk": 764849}, {"fields": {"kind": "PPLA3", "description": "", "parent": 858785, "creator": 1, "image": "img/locations/nowhere.jpg", "longitude": 22.78248, "names": [], "country_code": "PL", "latitude": 51.9864, "date_created": "2015-03-25T10:38:55.533Z", "users": [1], "population": 17158, "slug": "miedzyrzec-podlaski-pl", "name": "Mi\u0119dzyrzec Podlaski"}, "model": "locations.location", "pk": 764862}, {"fields": {"kind": "PPLA3", "description": "", "parent": 858787, "creator": 1, "image": "img/locations/nowhere.jpg", "longitude": 21.10474, "names": [], "country_code": "PL", "latitude": 52.32065, "date_created": "2015-03-25T10:39:07.536Z", "users": [1], "population": 23177, "slug": "marki-pl", "name": "Marki"}, "model": "locations.location", "pk": 765191}, {"fields": {"kind": "PPLA3", "description": "", "parent": 858785, "creator": 1, "image": "img/locations/nowhere.jpg", "longitude": 22.37956, "names": [], "country_code": "PL", "latitude": 51.929, "date_created": "2015-03-25T10:38:55.701Z", "users": [1], "population": 30465, "slug": "lukow-pl", "name": "\u0141uk\u00f3w"}, "model": "locations.location", "pk": 765749}, {"fields": {"kind": "PPLA", "description": "", "parent": 858785, "creator": 1, "image": "img/locations/nowhere.jpg", "longitude": 22.56667, "names": [], "country_code": "PL", "latitude": 51.25, "date_created": "2015-03-25T10:38:55.848Z", "users": [1], "population": 360044, "slug": "lublin-pl", "name": "Lublin"}, "model": "locations.location", "pk": 765876}, {"fields": {"kind": "PPLA2", "description": "", "parent": 858785, "creator": 1, "image": "img/locations/nowhere.jpg", "longitude": 22.60952, "names": [], "country_code": "PL", "latitude": 51.46026, "date_created": "2015-03-25T10:38:55.999Z", "users": [1], "population": 22839, "slug": "lubartow-pl", "name": "Lubart\u00f3w"}, "model": "locations.location", "pk": 765927}, {"fields": {"kind": "PPL", "description": "", "parent": 858789, "creator": 1, "image": "img/locations/nowhere.jpg", "longitude": 22.05935, "names": [], "country_code": "PL", "latitude": 53.17806, "date_created": "2015-03-25T10:39:19.682Z", "users": [1], "population": 63723, "slug": "lomza-pl", "name": "\u0141om\u017ca"}, "model": "locations.location", "pk": 766027}, {"fields": {"kind": "PPLA3", "description": "", "parent": 858787, "creator": 1, "image": "img/locations/nowhere.jpg", "longitude": 20.88602, "names": [], "country_code": "PL", "latitude": 52.33413, "date_created": "2015-03-25T10:39:07.882Z", "users": [1], "population": 15315, "slug": "lomianki-pl", "name": "\u0141omianki"}, "model": "locations.location", "pk": 766042}, {"fields": {"kind": "PPLA3", "description": "", "parent": 858791, "creator": 1, "image": "img/locations/nowhere.jpg", "longitude": 20.57954, "names": [], "country_code": "PL", "latitude": 54.12588, "date_created": "2015-03-25T10:39:29.675Z", "users": [1], "population": 16540, "slug": "lidzbark-warminski-pl", "name": "Lidzbark Warmi\u0144ski"}, "model": "locations.location", "pk": 766307}, {"fields": {"kind": "PPLA3", "description": "", "parent": 858787, "creator": 1, "image": "img/locations/nowhere.jpg", "longitude": 20.92664, "names": [], "country_code": "PL", "latitude": 52.40149, "date_created": "2015-03-25T10:39:08.227Z", "users": [1], "population": 50786, "slug": "legionowo-pl", "name": "Legionowo"}, "model": "locations.location", "pk": 766555}, {"fields": {"kind": "PPLA2", "description": "", "parent": 858785, "creator": 1, "image": "img/locations/nowhere.jpg", "longitude": 22.88135, "names": [], "country_code": "PL", "latitude": 51.30121, "date_created": "2015-03-25T10:38:56.164Z", "users": [1], "population": 21719, "slug": "leczna-pl", "name": "\u0141\u0119czna"}, "model": "locations.location", "pk": 766583}, {"fields": {"kind": "PPLA3", "description": "", "parent": 858789, "creator": 1, "image": "img/locations/nowhere.jpg", "longitude": 22.88422, "names": [], "country_code": "PL", "latitude": 52.9911, "date_created": "2015-03-25T10:39:20.163Z", "users": [1], "population": 16434, "slug": "lapy-pl", "name": "\u0141apy"}, "model": "locations.location", "pk": 766783}, {"fields": {"kind": "PPLA2", "description": "", "parent": 858788, "creator": 1, "image": "img/locations/nowhere.jpg", "longitude": 22.22912, "names": [], "country_code": "PL", "latitude": 50.06871, "date_created": "2015-03-25T10:39:16.133Z", "users": [1], "population": 18266, "slug": "lancut-pl", "name": "\u0141a\u0144cut"}, "model": "locations.location", "pk": 766810}, {"fields": {"kind": "PPLA3", "description": "", "parent": 858788, "creator": 1, "image": "img/locations/nowhere.jpg", "longitude": 21.77058, "names": [], "country_code": "PL", "latitude": 49.68866, "date_created": "2015-03-25T10:39:16.480Z", "users": [1], "population": 47784, "slug": "krosno-pl", "name": "Krosno"}, "model": "locations.location", "pk": 767470}, {"fields": {"kind": "PPLA2", "description": "", "parent": 858785, "creator": 1, "image": "img/locations/nowhere.jpg", "longitude": 23.1742, "names": [], "country_code": "PL", "latitude": 50.98464, "date_created": "2015-03-25T10:38:56.309Z", "users": [1], "population": 19532, "slug": "krasnystaw-pl", "name": "Krasnystaw"}, "model": "locations.location", "pk": 767605}, {"fields": {"kind": "PPLA2", "description": "", "parent": 858785, "creator": 1, "image": "img/locations/nowhere.jpg", "longitude": 22.22706, "names": [], "country_code": "PL", "latitude": 50.9236, "date_created": "2015-03-25T10:38:56.457Z", "users": [1], "population": 35834, "slug": "krasnik-pl", "name": "Kra\u015bnik"}, "model": "locations.location", "pk": 767623}, {"fields": {"kind": "PPL", "description": "", "parent": 858787, "creator": 1, "image": "img/locations/nowhere.jpg", "longitude": 21.54779, "names": [], "country_code": "PL", "latitude": 51.58294, "date_created": "2015-03-25T10:39:08.583Z", "users": [1], "population": 18677, "slug": "kozienice-pl", "name": "Kozienice"}, "model": "locations.location", "pk": 767814}, {"fields": {"kind": "PPLA3", "description": "", "parent": 858787, "creator": 1, "image": "img/locations/nowhere.jpg", "longitude": 21.11761, "names": [], "country_code": "PL", "latitude": 52.0938, "date_created": "2015-03-25T10:39:08.934Z", "users": [1], "population": 16548, "slug": "konstancin-jeziorna-pl", "name": "Konstancin-Jeziorna"}, "model": "locations.location", "pk": 768216}, {"fields": {"kind": "PPLA2", "description": "", "parent": 858790, "creator": 1, "image": "img/locations/nowhere.jpg", "longitude": 20.40607, "names": [], "country_code": "PL", "latitude": 51.19166, "date_created": "2015-03-25T10:39:25.480Z", "users": [1], "population": 20756, "slug": "konskie-pl", "name": "Ko\u0144skie"}, "model": "locations.location", "pk": 768218}, {"fields": {"kind": "PPLA3", "description": "", "parent": 858787, "creator": 1, "image": "img/locations/nowhere.jpg", "longitude": 21.19589, "names": [], "country_code": "PL", "latitude": 52.33953, "date_created": "2015-03-25T10:39:09.298Z", "users": [1], "population": 17659, "slug": "kobylka-pl", "name": "Koby\u0142ka"}, "model": "locations.location", "pk": 768905}, {"fields": {"kind": "PPLA", "description": "", "parent": 858790, "creator": 1, "image": "img/locations/nowhere.jpg", "longitude": 20.62752, "names": [], "country_code": "PL", "latitude": 50.87033, "date_created": "2015-03-25T10:39:25.944Z", "users": [1], "population": 208598, "slug": "kielce-pl", "name": "Kielce"}, "model": "locations.location", "pk": 769250}, {"fields": {"kind": "PPL", "description": "", "parent": 858791, "creator": 1, "image": "img/locations/nowhere.jpg", "longitude": 21.37527, "names": [], "country_code": "PL", "latitude": 54.07676, "date_created": "2015-03-25T10:39:30.161Z", "users": [1], "population": 28171, "slug": "ketrzyn-pl", "name": "K\u0119trzyn"}, "model": "locations.location", "pk": 769274}, {"fields": {"kind": "PPLA3", "description": "", "parent": 858787, "creator": 1, "image": "img/locations/nowhere.jpg", "longitude": 21.23589, "names": [], "country_code": "PL", "latitude": 52.13707, "date_created": "2015-03-25T10:39:09.660Z", "users": [1], "population": 17910, "slug": "jozefow-pl", "name": "J\u00f3zef\u00f3w"}, "model": "locations.location", "pk": 769981}, {"fields": {"kind": "PPLA2", "description": "", "parent": 858790, "creator": 1, "image": "img/locations/nowhere.jpg", "longitude": 20.30454, "names": [], "country_code": "PL", "latitude": 50.63945, "date_created": "2015-03-25T10:39:26.415Z", "users": [1], "population": 16792, "slug": "jedrzejow-pl", "name": "J\u0119drzej\u00f3w"}, "model": "locations.location", "pk": 770157}, {"fields": {"kind": "PPLA2", "description": "", "parent": 858788, "creator": 1, "image": "img/locations/nowhere.jpg", "longitude": 21.47252, "names": [], "country_code": "PL", "latitude": 49.74506, "date_created": "2015-03-25T10:39:16.875Z", "users": [1], "population": 37851, "slug": "jaslo-pl", "name": "Jas\u0142o"}, "model": "locations.location", "pk": 770293}, {"fields": {"kind": "PPL", "description": "", "parent": 858788, "creator": 1, "image": "img/locations/nowhere.jpg", "longitude": 22.67776, "names": [], "country_code": "PL", "latitude": 50.01623, "date_created": "2015-03-25T10:39:17.232Z", "users": [1], "population": 40134, "slug": "jaroslaw-pl", "name": "Jaros\u0142aw"}, "model": "locations.location", "pk": 770380}, {"fields": {"kind": "PPLA3", "description": "", "parent": 858785, "creator": 1, "image": "img/locations/nowhere.jpg", "longitude": 23.89251, "names": [], "country_code": "PL", "latitude": 50.80502, "date_created": "2015-03-25T10:38:56.614Z", "users": [1], "population": 18605, "slug": "hrubieszow-pl", "name": "Hrubiesz\u00f3w"}, "model": "locations.location", "pk": 770966}, {"fields": {"kind": "PPLA3", "description": "", "parent": 858789, "creator": 1, "image": "img/locations/nowhere.jpg", "longitude": 23.58122, "names": [], "country_code": "PL", "latitude": 52.74328, "date_created": "2015-03-25T10:39:20.553Z", "users": [1], "population": 22157, "slug": "hajnowka-pl", "name": "Hajn\u00f3wka"}, "model": "locations.location", "pk": 771158}, {"fields": {"kind": "PPLA2", "description": "", "parent": 858787, "creator": 1, "image": "img/locations/nowhere.jpg", "longitude": 20.6337, "names": [], "country_code": "PL", "latitude": 52.10387, "date_created": "2015-03-25T10:39:10.195Z", "users": [1], "population": 26684, "slug": "grodzisk-mazowiecki-pl", "name": "Grodzisk Mazowiecki"}, "model": "locations.location", "pk": 771401}, {"fields": {"kind": "PPLA2", "description": "", "parent": 858789, "creator": 1, "image": "img/locations/nowhere.jpg", "longitude": 22.45537, "names": [], "country_code": "PL", "latitude": 53.64728, "date_created": "2015-03-25T10:39:21.060Z", "users": [1], "population": 22803, "slug": "grajewo-pl", "name": "Grajewo"}, "model": "locations.location", "pk": 771506}, {"fields": {"kind": "PPL", "description": "", "parent": 858786, "creator": 1, "image": "img/locations/nowhere.jpg", "longitude": 21.16035, "names": [], "country_code": "PL", "latitude": 49.65563, "date_created": "2015-03-25T10:38:58.131Z", "users": [1], "population": 28609, "slug": "gorlice-pl", "name": "Gorlice"}, "model": "locations.location", "pk": 771804}, {"fields": {"kind": "PPLA3", "description": "", "parent": 858791, "creator": 1, "image": "img/locations/nowhere.jpg", "longitude": 21.76441, "names": [], "country_code": "PL", "latitude": 54.03811, "date_created": "2015-03-25T10:39:30.613Z", "users": [1], "population": 29972, "slug": "gizycko-pl", "name": "Gi\u017cycko"}, "model": "locations.location", "pk": 772195}, {"fields": {"kind": "PPL", "description": "", "parent": 858791, "creator": 1, "image": "img/locations/nowhere.jpg", "longitude": 21.49551, "names": [], "country_code": "PL", "latitude": 54.08134, "date_created": "2015-03-25T10:39:31.101Z", "users": [1], "population": 28351, "slug": "gierloz-pl", "name": "Gier\u0142o\u017c"}, "model": "locations.location", "pk": 772227}, {"fields": {"kind": "PPLA2", "description": "", "parent": 858787, "creator": 1, "image": "img/locations/nowhere.jpg", "longitude": 21.61466, "names": [], "country_code": "PL", "latitude": 51.89747, "date_created": "2015-03-25T10:39:10.690Z", "users": [1], "population": 15912, "slug": "garwolin-pl", "name": "Garwolin"}, "model": "locations.location", "pk": 772339}, {"fields": {"kind": "PPLA2", "description": "", "parent": 858791, "creator": 1, "image": "img/locations/nowhere.jpg", "longitude": 22.36469, "names": [], "country_code": "PL", "latitude": 53.82824, "date_created": "2015-03-25T10:39:31.595Z", "users": [1], "population": 55769, "slug": "elk-pl", "name": "E\u0142k"}, "model": "locations.location", "pk": 772621}, {"fields": {"kind": "PPLA3", "description": "", "parent": 858791, "creator": 1, "image": "img/locations/nowhere.jpg", "longitude": 20.17004, "names": [], "country_code": "PL", "latitude": 53.23958, "date_created": "2015-03-25T10:39:32.078Z", "users": [1], "population": 21127, "slug": "dzialdowo-pl", "name": "Dzia\u0142dowo"}, "model": "locations.location", "pk": 772748}, {"fields": {"kind": "PPLA3", "description": "", "parent": 858785, "creator": 1, "image": "img/locations/nowhere.jpg", "longitude": 21.84829, "names": [], "country_code": "PL", "latitude": 51.55912, "date_created": "2015-03-25T10:38:56.781Z", "users": [1], "population": 17775, "slug": "deblin-pl", "name": "D\u0119blin"}, "model": "locations.location", "pk": 773357}, {"fields": {"kind": "PPLA2", "description": "", "parent": 858788, "creator": 1, "image": "img/locations/nowhere.jpg", "longitude": 21.41141, "names": [], "country_code": "PL", "latitude": 50.05146, "date_created": "2015-03-25T10:39:17.591Z", "users": [1], "population": 47366, "slug": "debica-pl", "name": "D\u0119bica"}, "model": "locations.location", "pk": 773380}, {"fields": {"kind": "PPLA2", "description": "", "parent": 858787, "creator": 1, "image": "img/locations/nowhere.jpg", "longitude": 20.61996, "names": [], "country_code": "PL", "latitude": 52.88141, "date_created": "2015-03-25T10:39:11.126Z", "users": [1], "population": 46438, "slug": "ciechanow-pl", "name": "Ciechan\u00f3w"}, "model": "locations.location", "pk": 774208}, {"fields": {"kind": "PPL", "description": "", "parent": 858785, "creator": 1, "image": "img/locations/nowhere.jpg", "longitude": 23.4716, "names": [], "country_code": "PL", "latitude": 51.14312, "date_created": "2015-03-25T10:38:56.967Z", "users": [1], "population": 68043, "slug": "chelm-pl", "name": "Che\u0142m"}, "model": "locations.location", "pk": 774558}, {"fields": {"kind": "PPLA2", "description": "", "parent": 858790, "creator": 1, "image": "img/locations/nowhere.jpg", "longitude": 20.71884, "names": [], "country_code": "PL", "latitude": 50.47078, "date_created": "2015-03-25T10:39:26.848Z", "users": [1], "population": 17095, "slug": "busko-zdroj-pl", "name": "Busko-Zdr\u00f3j"}, "model": "locations.location", "pk": 774747}, {"fields": {"kind": "PPLA2", "description": "", "parent": 858786, "creator": 1, "image": "img/locations/nowhere.jpg", "longitude": 20.60606, "names": [], "country_code": "PL", "latitude": 49.96911, "date_created": "2015-03-25T10:38:58.264Z", "users": [1], "population": 16866, "slug": "brzesko-pl", "name": "Brzesko"}, "model": "locations.location", "pk": 775183}, {"fields": {"kind": "PPLA2", "description": "", "parent": 858786, "creator": 1, "image": "img/locations/nowhere.jpg", "longitude": 20.43028, "names": [], "country_code": "PL", "latitude": 49.96905, "date_created": "2015-03-25T10:38:58.410Z", "users": [1], "population": 29184, "slug": "bochnia-pl", "name": "Bochnia"}, "model": "locations.location", "pk": 775758}, {"fields": {"kind": "PPLA2", "description": "", "parent": 858785, "creator": 1, "image": "img/locations/nowhere.jpg", "longitude": 22.72204, "names": [], "country_code": "PL", "latitude": 50.54114, "date_created": "2015-03-25T10:38:57.132Z", "users": [1], "population": 26987, "slug": "bilgoraj-pl", "name": "Bi\u0142goraj"}, "model": "locations.location", "pk": 775922}, {"fields": {"kind": "PPLA3", "description": "", "parent": 858789, "creator": 1, "image": "img/locations/nowhere.jpg", "longitude": 23.18647, "names": [], "country_code": "PL", "latitude": 52.76512, "date_created": "2015-03-25T10:39:21.487Z", "users": [1], "population": 26493, "slug": "bielsk-podlaski-pl", "name": "Bielsk Podlaski"}, "model": "locations.location", "pk": 775986}, {"fields": {"kind": "PPLA", "description": "", "parent": 858789, "creator": 1, "image": "img/locations/nowhere.jpg", "longitude": 23.16433, "names": [], "country_code": "PL", "latitude": 53.13333, "date_created": "2015-03-25T10:39:21.932Z", "users": [1], "population": 291855, "slug": "bialystok-pl", "name": "Bia\u0142ystok"}, "model": "locations.location", "pk": 776069}, {"fields": {"kind": "PPLA2", "description": "", "parent": 858785, "creator": 1, "image": "img/locations/nowhere.jpg", "longitude": 23.11652, "names": [], "country_code": "PL", "latitude": 52.03238, "date_created": "2015-03-25T10:38:57.324Z", "users": [1], "population": 57541, "slug": "biala-podlaska-pl", "name": "Bia\u0142a Podlaska"}, "model": "locations.location", "pk": 776175}, {"fields": {"kind": "PPL", "description": "", "parent": 858791, "creator": 1, "image": "img/locations/nowhere.jpg", "longitude": 20.80819, "names": [], "country_code": "PL", "latitude": 54.25354, "date_created": "2015-03-25T10:39:32.582Z", "users": [1], "population": 25660, "slug": "bartoszyce-pl", "name": "Bartoszyce"}, "model": "locations.location", "pk": 776337}, {"fields": {"kind": "PPLA3", "description": "", "parent": 858789, "creator": 1, "image": "img/locations/nowhere.jpg", "longitude": 22.97979, "names": [], "country_code": "PL", "latitude": 53.84321, "date_created": "2015-03-25T10:39:22.352Z", "users": [1], "population": 29752, "slug": "augustow-pl", "name": "August\u00f3w"}, "model": "locations.location", "pk": 776597}, {"fields": {"kind": "country", "description": "", "parent": null, "creator": 1, "image": "img/locations/nowhere.jpg", "longitude": null, "names": [], "country_code": "PL", "latitude": null, "date_created": "2015-03-25T10:38:54.322Z", "users": [1, 14, 17], "population": 38500000, "slug": "poland-pl", "name": "Poland"}, "model": "locations.location", "pk": 798544}, {"fields": {"kind": "region", "description": "", "parent": 798544, "creator": 1, "image": "img/locations/nowhere.jpg", "longitude": null, "names": [], "country_code": "PL", "latitude": null, "date_created": "2015-03-25T10:38:54.572Z", "users": [1], "population": null, "slug": "lublin-voivodeship-pl", "name": "Lublin Voivodeship"}, "model": "locations.location", "pk": 858785}, {"fields": {"kind": "region", "description": "", "parent": 798544, "creator": 1, "image": "img/locations/nowhere.jpg", "longitude": null, "names": [], "country_code": "PL", "latitude": null, "date_created": "2015-03-25T10:38:57.513Z", "users": [1], "population": null, "slug": "lesser-poland-voivodeship-pl", "name": "Lesser Poland Voivodeship"}, "model": "locations.location", "pk": 858786}, {"fields": {"kind": "region", "description": "", "parent": 798544, "creator": 1, "image": "img/locations/nowhere.jpg", "longitude": null, "names": [], "country_code": "PL", "latitude": null, "date_created": "2015-03-25T10:39:00.609Z", "users": [1], "population": null, "slug": "masovian-voivodeship-pl", "name": "Masovian Voivodeship"}, "model": "locations.location", "pk": 858787}, {"fields": {"kind": "region", "description": "", "parent": 798544, "creator": 1, "image": "img/locations/nowhere.jpg", "longitude": null, "names": [], "country_code": "PL", "latitude": null, "date_created": "2015-03-25T10:39:12.751Z", "users": [1], "population": null, "slug": "subcarpathian-voivodeship-pl", "name": "Subcarpathian Voivodeship"}, "model": "locations.location", "pk": 858788}, {"fields": {"kind": "region", "description": "", "parent": 798544, "creator": 1, "image": "img/locations/nowhere.jpg", "longitude": null, "names": [], "country_code": "PL", "latitude": null, "date_created": "2015-03-25T10:39:18.031Z", "users": [1], "population": null, "slug": "podlasie-pl", "name": "Podlasie"}, "model": "locations.location", "pk": 858789}, {"fields": {"kind": "region", "description": "", "parent": 798544, "creator": 1, "image": "img/locations/nowhere.jpg", "longitude": null, "names": [], "country_code": "PL", "latitude": null, "date_created": "2015-03-25T10:39:22.773Z", "users": [1], "population": null, "slug": "swietokrzyskie-pl", "name": "\u015awi\u0119tokrzyskie"}, "model": "locations.location", "pk": 858790}, {"fields": {"kind": "region", "description": "", "parent": 798544, "creator": 1, "image": "img/locations/nowhere.jpg", "longitude": null, "names": [], "country_code": "PL", "latitude": null, "date_created": "2015-03-25T10:39:27.296Z", "users": [1], "population": null, "slug": "warmian-masurian-voivodeship-pl", "name": "Warmian-Masurian Voivodeship"}, "model": "locations.location", "pk": 858791}, {"fields": {"kind": "PPLA3", "description": "", "parent": 3337497, "creator": 1, "image": "img/locations/nowhere.jpg", "longitude": 19.19243, "names": [], "country_code": "PL", "latitude": 49.68529, "date_created": "2015-03-25T10:40:39.805Z", "users": [1], "population": 32132, "slug": "zywiec-pl", "name": "\u017bywiec"}, "model": "locations.location", "pk": 3079855}, {"fields": {"kind": "PPLA2", "description": "", "parent": 3337497, "creator": 1, "image": "img/locations/nowhere.jpg", "longitude": 18.70062, "names": [], "country_code": "PL", "latitude": 50.04523, "date_created": "2015-03-25T10:40:40.705Z", "users": [1], "population": 63174, "slug": "zory-pl", "name": "\u017bory"}, "model": "locations.location", "pk": 3080004}, {"fields": {"kind": "PPLA3", "description": "", "parent": 3337498, "creator": 1, "image": "img/locations/nowhere.jpg", "longitude": 17.04082, "names": [], "country_code": "PL", "latitude": 53.36346, "date_created": "2015-03-25T10:41:34.691Z", "users": [1], "population": 18395, "slug": "zlotow-pl", "name": "Z\u0142ot\u00f3w"}, "model": "locations.location", "pk": 3080071}, {"fields": {"kind": "PPL", "description": "", "parent": 3337492, "creator": 1, "image": "img/locations/nowhere.jpg", "longitude": 15.91979, "names": [], "country_code": "PL", "latitude": 51.12637, "date_created": "2015-03-25T10:39:35.268Z", "users": [1], "population": 16612, "slug": "zlotoryja-pl", "name": "Z\u0142otoryja"}, "model": "locations.location", "pk": 3080074}, {"fields": {"kind": "PPLA", "description": "", "parent": 3337494, "creator": 1, "image": "img/locations/nowhere.jpg", "longitude": 15.50643, "names": [], "country_code": "PL", "latitude": 51.93548, "date_created": "2015-03-25T10:40:01.335Z", "users": [1], "population": 118433, "slug": "zielona-gora-pl", "name": "Zielona G\u00f3ra"}, "model": "locations.location", "pk": 3080165}, {"fields": {"kind": "PPLA2", "description": "", "parent": 3337492, "creator": 1, "image": "img/locations/nowhere.jpg", "longitude": 15.00835, "names": [], "country_code": "PL", "latitude": 51.14942, "date_created": "2015-03-25T10:39:35.710Z", "users": [1], "population": 33247, "slug": "zgorzelec-pl", "name": "Zgorzelec"}, "model": "locations.location", "pk": 3080231}, {"fields": {"kind": "PPLA2", "description": "", "parent": 3337493, "creator": 1, "image": "img/locations/nowhere.jpg", "longitude": 19.40623, "names": [], "country_code": "PL", "latitude": 51.85561, "date_created": "2015-03-25T10:39:51.284Z", "users": [1], "population": 58036, "slug": "zgierz-pl", "name": "Zgierz"}, "model": "locations.location", "pk": 3080251}, {"fields": {"kind": "PPLA2", "description": "", "parent": 3337493, "creator": 1, "image": "img/locations/nowhere.jpg", "longitude": 18.93974, "names": [], "country_code": "PL", "latitude": 51.59915, "date_created": "2015-03-25T10:39:51.802Z", "users": [1], "population": 44515, "slug": "zdunska-wola-pl", "name": "Zdu\u0144ska Wola"}, "model": "locations.location", "pk": 3080414}, {"fields": {"kind": "PPLA2", "description": "", "parent": 3337497, "creator": 1, "image": "img/locations/nowhere.jpg", "longitude": 19.41679, "names": [], "country_code": "PL", "latitude": 50.48766, "date_created": "2015-03-25T10:40:42.622Z", "users": [1], "population": 53159, "slug": "zawiercie-pl", "name": "Zawiercie"}, "model": "locations.location", "pk": 3080526}, {"fields": {"kind": "PPLA2", "description": "", "parent": 3337494, "creator": 1, "image": "img/locations/nowhere.jpg", "longitude": 15.13727, "names": [], "country_code": "PL", "latitude": 51.64205, "date_created": "2015-03-25T10:40:01.926Z", "users": [1], "population": 38779, "slug": "zary-pl", "name": "\u017bary"}, "model": "locations.location", "pk": 3080644}, {"fields": {"kind": "PPL", "description": "", "parent": 858786, "creator": 1, "image": "img/locations/nowhere.jpg", "longitude": 19.94885, "names": [], "country_code": "PL", "latitude": 49.29899, "date_created": "2015-03-25T10:38:58.560Z", "users": [1], "population": 27580, "slug": "zakopane-pl", "name": "Zakopane"}, "model": "locations.location", "pk": 3080866}, {"fields": {"kind": "PPL", "description": "", "parent": 3337494, "creator": 1, "image": "img/locations/nowhere.jpg", "longitude": 15.31486, "names": [], "country_code": "PL", "latitude": 51.61759, "date_created": "2015-03-25T10:40:02.644Z", "users": [1], "population": 26251, "slug": "zagan-pl", "name": "\u017baga\u0144"}, "model": "locations.location", "pk": 3080944}, {"fields": {"kind": "PPLA2", "description": "", "parent": 3337497, "creator": 1, "image": "img/locations/nowhere.jpg", "longitude": 18.78576, "names": [], "country_code": "PL", "latitude": 50.32492, "date_created": "2015-03-25T10:40:44.870Z", "users": [1], "population": 192177, "slug": "zabrze-pl", "name": "Zabrze"}, "model": "locations.location", "pk": 3080985}, {"fields": {"kind": "PPL", "description": "", "parent": 3337492, "creator": 1, "image": "img/locations/nowhere.jpg", "longitude": 16.81239, "names": [], "country_code": "PL", "latitude": 50.58969, "date_created": "2015-03-25T10:39:36.182Z", "users": [1], "population": 16321, "slug": "zabkowice-slaskie-pl", "name": "Z\u0105bkowice \u015al\u0105skie"}, "model": "locations.location", "pk": 3081046}, {"fields": {"kind": "PPLA2", "description": "", "parent": 3337498, "creator": 1, "image": "img/locations/nowhere.jpg", "longitude": 17.56519, "names": [], "country_code": "PL", "latitude": 52.32512, "date_created": "2015-03-25T10:41:36.010Z", "users": [1], "population": 28703, "slug": "wrzesnia-pl", "name": "Wrze\u015bnia"}, "model": "locations.location", "pk": 3081324}, {"fields": {"kind": "PPLA", "description": "", "parent": 3337492, "creator": 1, "image": "img/locations/nowhere.jpg", "longitude": 17.03333, "names": [], "country_code": "PL", "latitude": 51.1, "date_created": "2015-03-25T10:39:36.600Z", "users": [1], "population": 634893, "slug": "wroclaw-pl", "name": "Wroc\u0142aw"}, "model": "locations.location", "pk": 3081368}, {"fields": {"kind": "PPLA2", "description": "", "parent": 3337497, "creator": 1, "image": "img/locations/nowhere.jpg", "longitude": 18.47205, "names": [], "country_code": "PL", "latitude": 50.00377, "date_created": "2015-03-25T10:40:45.855Z", "users": [1], "population": 49521, "slug": "wodzislaw-slaski-pl", "name": "Wodzis\u0142aw \u015al\u0105ski"}, "model": "locations.location", "pk": 3081677}, {"fields": {"kind": "PPLA2", "description": "", "parent": 3337500, "creator": 1, "image": "img/locations/nowhere.jpg", "longitude": 19.0678, "names": [], "country_code": "PL", "latitude": 52.64817, "date_created": "2015-03-25T10:51:56.625Z", "users": [1], "population": 120339, "slug": "wloclawek-pl", "name": "W\u0142oc\u0142awek"}, "model": "locations.location", "pk": 3081741}, {"fields": {"kind": "PPL", "description": "", "parent": 3337493, "creator": 1, "image": "img/locations/nowhere.jpg", "longitude": 18.56964, "names": [], "country_code": "PL", "latitude": 51.22097, "date_created": "2015-03-25T10:39:52.337Z", "users": [1], "population": 24384, "slug": "wielun-pl", "name": "Wielu\u0144"}, "model": "locations.location", "pk": 3082197}, {"fields": {"kind": "PPLA2", "description": "", "parent": 3337496, "creator": 1, "image": "img/locations/nowhere.jpg", "longitude": 18.23559, "names": [], "country_code": "PL", "latitude": 54.60568, "date_created": "2015-03-25T10:40:16.383Z", "users": [1], "population": 46820, "slug": "wejherowo-pl", "name": "Wejherowo"}, "model": "locations.location", "pk": 3082473}, {"fields": {"kind": "PPLA3", "description": "", "parent": 3337499, "creator": 1, "image": "img/locations/nowhere.jpg", "longitude": 16.47122, "names": [], "country_code": "PL", "latitude": 53.27787, "date_created": "2015-03-25T10:42:29.170Z", "users": [1], "population": 25971, "slug": "walcz-pl", "name": "Wa\u0142cz"}, "model": "locations.location", "pk": 3082704}, {"fields": {"kind": "PPLA3", "description": "", "parent": 3337492, "creator": 1, "image": "img/locations/nowhere.jpg", "longitude": 16.28432, "names": [], "country_code": "PL", "latitude": 50.77141, "date_created": "2015-03-25T10:39:37.085Z", "users": [1], "population": 127431, "slug": "walbrzych-pl", "name": "Wa\u0142brzych"}, "model": "locations.location", "pk": 3082707}, {"fields": {"kind": "PPL", "description": "", "parent": 3337498, "creator": 1, "image": "img/locations/nowhere.jpg", "longitude": 17.19961, "names": [], "country_code": "PL", "latitude": 52.80842, "date_created": "2015-03-25T10:41:36.915Z", "users": [1], "population": 24428, "slug": "wagrowiec-pl", "name": "W\u0105growiec"}, "model": "locations.location", "pk": 3082712}, {"fields": {"kind": "PPLA2", "description": "", "parent": 858786, "creator": 1, "image": "img/locations/nowhere.jpg", "longitude": 19.49292, "names": [], "country_code": "PL", "latitude": 49.88335, "date_created": "2015-03-25T10:38:58.700Z", "users": [1], "population": 19238, "slug": "wadowice-pl", "name": "Wadowice"}, "model": "locations.location", "pk": 3082722}, {"fields": {"kind": "PPLA3", "description": "", "parent": 3337497, "creator": 1, "image": "img/locations/nowhere.jpg", "longitude": 18.80198, "names": [], "country_code": "PL", "latitude": 49.72153, "date_created": "2015-03-25T10:40:46.853Z", "users": [1], "population": 15637, "slug": "ustron-pl", "name": "Ustro\u0144"}, "model": "locations.location", "pk": 3082751}, {"fields": {"kind": "PPLA3", "description": "", "parent": 3337496, "creator": 1, "image": "img/locations/nowhere.jpg", "longitude": 16.86194, "names": [], "country_code": "PL", "latitude": 54.58048, "date_created": "2015-03-25T10:40:17.053Z", "users": [1], "population": 16250, "slug": "ustka-pl", "name": "Ustka"}, "model": "locations.location", "pk": 3082756}, {"fields": {"kind": "PPLA3", "description": "", "parent": 3337497, "creator": 1, "image": "img/locations/nowhere.jpg", "longitude": 18.96641, "names": [], "country_code": "PL", "latitude": 50.13717, "date_created": "2015-03-25T10:40:50.166Z", "users": [1], "population": 130000, "slug": "tychy-pl", "name": "Tychy"}, "model": "locations.location", "pk": 3082914}, {"fields": {"kind": "PPLA2", "description": "", "parent": 3337498, "creator": 1, "image": "img/locations/nowhere.jpg", "longitude": 18.50055, "names": [], "country_code": "PL", "latitude": 52.01548, "date_created": "2015-03-25T10:41:38.272Z", "users": [1], "population": 29533, "slug": "turek-pl", "name": "Turek"}, "model": "locations.location", "pk": 3082998}, {"fields": {"kind": "PPLA3", "description": "", "parent": 858786, "creator": 1, "image": "img/locations/nowhere.jpg", "longitude": 19.46966, "names": [], "country_code": "PL", "latitude": 50.15931, "date_created": "2015-03-25T10:38:58.878Z", "users": [1], "population": 18828, "slug": "trzebinia-pl", "name": "Trzebinia"}, "model": "locations.location", "pk": 3083111}, {"fields": {"kind": "PPLA3", "description": "", "parent": 3337498, "creator": 1, "image": "img/locations/nowhere.jpg", "longitude": 16.45628, "names": [], "country_code": "PL", "latitude": 53.04063, "date_created": "2015-03-25T10:41:39.408Z", "users": [1], "population": 16914, "slug": "trzcianka-pl", "name": "Trzcianka"}, "model": "locations.location", "pk": 3083185}, {"fields": {"kind": "PPL", "description": "", "parent": 3337500, "creator": 1, "image": "img/locations/nowhere.jpg", "longitude": 18.59814, "names": [], "country_code": "PL", "latitude": 53.01375, "date_created": "2015-03-25T10:51:57.471Z", "users": [1], "population": 208717, "slug": "torun-pl", "name": "Toru\u0144"}, "model": "locations.location", "pk": 3083271}, {"fields": {"kind": "PPLA2", "description": "", "parent": 3337496, "creator": 1, "image": "img/locations/nowhere.jpg", "longitude": 18.77787, "names": [], "country_code": "PL", "latitude": 54.09242, "date_created": "2015-03-25T10:40:17.696Z", "users": [1], "population": 60133, "slug": "tczew-pl", "name": "Tczew"}, "model": "locations.location", "pk": 3083426}, {"fields": {"kind": "PPLA2", "description": "", "parent": 3337497, "creator": 1, "image": "img/locations/nowhere.jpg", "longitude": 18.86147, "names": [], "country_code": "PL", "latitude": 50.44548, "date_created": "2015-03-25T10:40:51.593Z", "users": [1], "population": 60938, "slug": "tarnowskie-gory-pl", "name": "Tarnowskie G\u00f3ry"}, "model": "locations.location", "pk": 3083440}, {"fields": {"kind": "PPLA3", "description": "", "parent": 3337499, "creator": 1, "image": "img/locations/nowhere.jpg", "longitude": 16.69937, "names": [], "country_code": "PL", "latitude": 53.70791, "date_created": "2015-03-25T10:42:31.135Z", "users": [1], "population": 38496, "slug": "szczecinek-pl", "name": "Szczecinek"}, "model": "locations.location", "pk": 3083826}, {"fields": {"kind": "PPLA", "description": "", "parent": 3337499, "creator": 1, "image": "img/locations/nowhere.jpg", "longitude": 14.55302, "names": [], "country_code": "PL", "latitude": 53.42894, "date_created": "2015-03-25T10:42:33.870Z", "users": [1], "population": 407811, "slug": "szczecin-pl", "name": "Szczecin"}, "model": "locations.location", "pk": 3083829}, {"fields": {"kind": "PPLA2", "description": "", "parent": 3337498, "creator": 1, "image": "img/locations/nowhere.jpg", "longitude": 16.57794, "names": [], "country_code": "PL", "latitude": 52.61201, "date_created": "2015-03-25T10:41:41.882Z", "users": [1], "population": 18588, "slug": "szamotuly-pl", "name": "Szamotu\u0142y"}, "model": "locations.location", "pk": 3083878}, {"fields": {"kind": "PPLA2", "description": "", "parent": 3337499, "creator": 1, "image": "img/locations/nowhere.jpg", "longitude": 14.24712, "names": [], "country_code": "PL", "latitude": 53.91053, "date_created": "2015-03-25T10:42:35.904Z", "users": [1], "population": 40919, "slug": "swinoujscie-pl", "name": "\u015awinouj\u015bcie"}, "model": "locations.location", "pk": 3083955}, {"fields": {"kind": "PPLA2", "description": "", "parent": 3337497, "creator": 1, "image": "img/locations/nowhere.jpg", "longitude": 18.91726, "names": [], "country_code": "PL", "latitude": 50.29636, "date_created": "2015-03-25T10:40:52.310Z", "users": [1], "population": 55600, "slug": "swietochlowice-pl", "name": "\u015awi\u0119toch\u0142owice"}, "model": "locations.location", "pk": 3083988}, {"fields": {"kind": "PPLA2", "description": "", "parent": 3337494, "creator": 1, "image": "img/locations/nowhere.jpg", "longitude": 15.53355, "names": [], "country_code": "PL", "latitude": 52.24751, "date_created": "2015-03-25T10:40:03.237Z", "users": [1], "population": 21757, "slug": "swiebodzin-pl", "name": "\u015awiebodzin"}, "model": "locations.location", "pk": 3084062}, {"fields": {"kind": "PPL", "description": "", "parent": 3337500, "creator": 1, "image": "img/locations/nowhere.jpg", "longitude": 18.44742, "names": [], "country_code": "PL", "latitude": 53.40953, "date_created": "2015-03-25T10:51:58.420Z", "users": [1], "population": 25843, "slug": "swiecie-pl", "name": "\u015awiecie"}, "model": "locations.location", "pk": 3084074}, {"fields": {"kind": "PPLA3", "description": "", "parent": 3337492, "creator": 1, "image": "img/locations/nowhere.jpg", "longitude": 16.3282, "names": [], "country_code": "PL", "latitude": 50.85976, "date_created": "2015-03-25T10:39:37.586Z", "users": [1], "population": 23228, "slug": "swiebodzice-pl", "name": "\u015awiebodzice"}, "model": "locations.location", "pk": 3084084}, {"fields": {"kind": "PPL", "description": "", "parent": 3337499, "creator": 1, "image": "img/locations/nowhere.jpg", "longitude": 15.77671, "names": [], "country_code": "PL", "latitude": 53.77464, "date_created": "2015-03-25T10:42:37.707Z", "users": [1], "population": 16076, "slug": "swidwin-pl", "name": "\u015awidwin"}, "model": "locations.location", "pk": 3084085}, {"fields": {"kind": "PPLA2", "description": "", "parent": 3337492, "creator": 1, "image": "img/locations/nowhere.jpg", "longitude": 16.48859, "names": [], "country_code": "PL", "latitude": 50.84378, "date_created": "2015-03-25T10:39:38.066Z", "users": [1], "population": 60351, "slug": "swidnica-pl", "name": "\u015awidnica"}, "model": "locations.location", "pk": 3084093}, {"fields": {"kind": "PPLA3", "description": "", "parent": 3337498, "creator": 1, "image": "img/locations/nowhere.jpg", "longitude": 17.08503, "names": [], "country_code": "PL", "latitude": 52.41289, "date_created": "2015-03-25T10:41:43.354Z", "users": [1], "population": 29010, "slug": "swarzedz-pl", "name": "Swarz\u0119dz"}, "model": "locations.location", "pk": 3084130}, {"fields": {"kind": "PPLA3", "description": "", "parent": 3337494, "creator": 1, "image": "img/locations/nowhere.jpg", "longitude": 15.62513, "names": [], "country_code": "PL", "latitude": 52.08362, "date_created": "2015-03-25T10:40:03.786Z", "users": [1], "population": 18055, "slug": "sulechow-pl", "name": "Sulech\u00f3w"}, "model": "locations.location", "pk": 3084241}, {"fields": {"kind": "PPLA2", "description": "", "parent": 3337495, "creator": 1, "image": "img/locations/nowhere.jpg", "longitude": 18.30056, "names": [], "country_code": "PL", "latitude": 50.5107, "date_created": "2015-03-25T10:40:08.268Z", "users": [1], "population": 20241, "slug": "strzelce-opolskie-pl", "name": "Strzelce Opolskie"}, "model": "locations.location", "pk": 3084415}, {"fields": {"kind": "PPL", "description": "", "parent": 3337492, "creator": 1, "image": "img/locations/nowhere.jpg", "longitude": 16.35006, "names": [], "country_code": "PL", "latitude": 50.96264, "date_created": "2015-03-25T10:39:38.544Z", "users": [1], "population": 17004, "slug": "strzegom-pl", "name": "Strzegom"}, "model": "locations.location", "pk": 3084440}, {"fields": {"kind": "PPL", "description": "", "parent": 3337496, "creator": 1, "image": "img/locations/nowhere.jpg", "longitude": 18.52638, "names": [], "country_code": "PL", "latitude": 53.96396, "date_created": "2015-03-25T10:40:18.383Z", "users": [1], "population": 48202, "slug": "starogard-gdanski-pl", "name": "Starogard Gda\u0144ski"}, "model": "locations.location", "pk": 3084826}, {"fields": {"kind": "PPLA2", "description": "", "parent": 3337499, "creator": 1, "image": "img/locations/nowhere.jpg", "longitude": 15.0499, "names": [], "country_code": "PL", "latitude": 53.33672, "date_created": "2015-03-25T10:42:39.764Z", "users": [1], "population": 71224, "slug": "stargard-szczecinski-pl", "name": "Stargard Szczeci\u0144ski"}, "model": "locations.location", "pk": 3084840}, {"fields": {"kind": "PPLA2", "description": "", "parent": 3337498, "creator": 1, "image": "img/locations/nowhere.jpg", "longitude": 17.27617, "names": [], "country_code": "PL", "latitude": 52.22843, "date_created": "2015-03-25T10:41:44.934Z", "users": [1], "population": 21757, "slug": "sroda-wielkopolska-pl", "name": "\u015aroda Wielkopolska"}, "model": "locations.location", "pk": 3085045}, {"fields": {"kind": "PPLA2", "description": "", "parent": 3337498, "creator": 1, "image": "img/locations/nowhere.jpg", "longitude": 17.01508, "names": [], "country_code": "PL", "latitude": 52.08868, "date_created": "2015-03-25T10:41:46.174Z", "users": [1], "population": 30404, "slug": "srem-pl", "name": "\u015arem"}, "model": "locations.location", "pk": 3085056}, {"fields": {"kind": "PPL", "description": "", "parent": 3337497, "creator": 1, "image": "img/locations/nowhere.jpg", "longitude": 19.10385, "names": [], "country_code": "PL", "latitude": 50.28682, "date_created": "2015-03-25T10:40:53.047Z", "users": [1], "population": 227295, "slug": "sosnowiec-pl", "name": "Sosnowiec"}, "model": "locations.location", "pk": 3085128}, {"fields": {"kind": "PPL", "description": "", "parent": 3337496, "creator": 1, "image": "img/locations/nowhere.jpg", "longitude": 18.56003, "names": [], "country_code": "PL", "latitude": 54.4418, "date_created": "2015-03-25T10:40:19.032Z", "users": [1], "population": 40142, "slug": "sopot-pl", "name": "Sopot"}, "model": "locations.location", "pk": 3085151}, {"fields": {"kind": "PPL", "description": "", "parent": 3337500, "creator": 1, "image": "img/locations/nowhere.jpg", "longitude": 18.22572, "names": [], "country_code": "PL", "latitude": 53.08371, "date_created": "2015-03-25T10:51:59.375Z", "users": [1], "population": 15125, "slug": "solec-kujawski-pl", "name": "Solec Kujawski"}, "model": "locations.location", "pk": 3085172}, {"fields": {"kind": "PPLA2", "description": "", "parent": 3337496, "creator": 1, "image": "img/locations/nowhere.jpg", "longitude": 17.02872, "names": [], "country_code": "PL", "latitude": 54.46405, "date_created": "2015-03-25T10:40:19.699Z", "users": [1], "population": 98608, "slug": "slupsk-pl", "name": "S\u0142upsk"}, "model": "locations.location", "pk": 3085450}, {"fields": {"kind": "PPLA2", "description": "", "parent": 3337494, "creator": 1, "image": "img/locations/nowhere.jpg", "longitude": 14.56065, "names": [], "country_code": "PL", "latitude": 52.35088, "date_created": "2015-03-25T10:40:04.381Z", "users": [1], "population": 17567, "slug": "slubice-pl", "name": "S\u0142ubice"}, "model": "locations.location", "pk": 3085495}, {"fields": {"kind": "PPL", "description": "", "parent": 858786, "creator": 1, "image": "img/locations/nowhere.jpg", "longitude": 19.82869, "names": [], "country_code": "PL", "latitude": 49.97524, "date_created": "2015-03-25T10:38:59.044Z", "users": [1], "population": 23647, "slug": "skawina-pl", "name": "Skawina"}, "model": "locations.location", "pk": 3085807}, {"fields": {"kind": "PPLA2", "description": "", "parent": 858787, "creator": 1, "image": "img/locations/nowhere.jpg", "longitude": 19.66913, "names": [], "country_code": "PL", "latitude": 52.8568, "date_created": "2015-03-25T10:39:11.521Z", "users": [1], "population": 18866, "slug": "sierpc-pl", "name": "Sierpc"}, "model": "locations.location", "pk": 3085941}, {"fields": {"kind": "PPLA2", "description": "", "parent": 3337493, "creator": 1, "image": "img/locations/nowhere.jpg", "longitude": 18.73023, "names": [], "country_code": "PL", "latitude": 51.59584, "date_created": "2015-03-25T10:39:52.873Z", "users": [1], "population": 44436, "slug": "sieradz-pl", "name": "Sieradz"}, "model": "locations.location", "pk": 3085978}, {"fields": {"kind": "PPLA2", "description": "", "parent": 3337497, "creator": 1, "image": "img/locations/nowhere.jpg", "longitude": 19.02901, "names": [], "country_code": "PL", "latitude": 50.32738, "date_created": "2015-03-25T10:40:53.819Z", "users": [1], "population": 73121, "slug": "siemianowice-slaskie-pl", "name": "Siemianowice \u015al\u0105skie"}, "model": "locations.location", "pk": 3086024}, {"fields": {"kind": "PPLA2", "description": "", "parent": 3337500, "creator": 1, "image": "img/locations/nowhere.jpg", "longitude": 19.40941, "names": [], "country_code": "PL", "latitude": 53.06603, "date_created": "2015-03-25T10:52:00.297Z", "users": [1], "population": 16589, "slug": "rypin-pl", "name": "Rypin"}, "model": "locations.location", "pk": 3086511}, {"fields": {"kind": "PPLA3", "description": "", "parent": 3337497, "creator": 1, "image": "img/locations/nowhere.jpg", "longitude": 18.41703, "names": [], "country_code": "PL", "latitude": 50.05857, "date_created": "2015-03-25T10:40:54.534Z", "users": [1], "population": 21887, "slug": "rydultowy-pl", "name": "Rydu\u0142towy"}, "model": "locations.location", "pk": 3086531}, {"fields": {"kind": "PPLA2", "description": "", "parent": 3337497, "creator": 1, "image": "img/locations/nowhere.jpg", "longitude": 18.54179, "names": [], "country_code": "PL", "latitude": 50.09713, "date_created": "2015-03-25T10:40:55.276Z", "users": [1], "population": 142510, "slug": "rybnik-pl", "name": "Rybnik"}, "model": "locations.location", "pk": 3086586}, {"fields": {"kind": "PPLA3", "description": "", "parent": 3337496, "creator": 1, "image": "img/locations/nowhere.jpg", "longitude": 18.38802, "names": [], "country_code": "PL", "latitude": 54.57092, "date_created": "2015-03-25T10:40:20.384Z", "users": [1], "population": 44791, "slug": "rumia-pl", "name": "Rumia"}, "model": "locations.location", "pk": 3086706}, {"fields": {"kind": "PPL", "description": "", "parent": 3337497, "creator": 1, "image": "img/locations/nowhere.jpg", "longitude": 18.85632, "names": [], "country_code": "PL", "latitude": 50.2584, "date_created": "2015-03-25T10:40:55.985Z", "users": [1], "population": 146189, "slug": "ruda-slaska-pl", "name": "Ruda \u015al\u0105ska"}, "model": "locations.location", "pk": 3086800}, {"fields": {"kind": "PPLA3", "description": "", "parent": 3337496, "creator": 1, "image": "img/locations/nowhere.jpg", "longitude": 18.34717, "names": [], "country_code": "PL", "latitude": 54.60528, "date_created": "2015-03-25T10:40:21.049Z", "users": [1], "population": 18116, "slug": "reda-pl", "name": "Reda"}, "model": "locations.location", "pk": 3087281}, {"fields": {"kind": "PPLA2", "description": "", "parent": 3337498, "creator": 1, "image": "img/locations/nowhere.jpg", "longitude": 16.85852, "names": [], "country_code": "PL", "latitude": 51.60946, "date_created": "2015-03-25T10:41:47.735Z", "users": [1], "population": 21380, "slug": "rawicz-pl", "name": "Rawicz"}, "model": "locations.location", "pk": 3087307}, {"fields": {"kind": "PPL", "description": "", "parent": 3337497, "creator": 1, "image": "img/locations/nowhere.jpg", "longitude": 18.90232, "names": [], "country_code": "PL", "latitude": 50.40026, "date_created": "2015-03-25T10:40:56.741Z", "users": [1], "population": 17167, "slug": "radzionkow-pl", "name": "Radzionk\u00f3w"}, "model": "locations.location", "pk": 3087418}, {"fields": {"kind": "PPL", "description": "", "parent": 3337493, "creator": 1, "image": "img/locations/nowhere.jpg", "longitude": 19.44477, "names": [], "country_code": "PL", "latitude": 51.06713, "date_created": "2015-03-25T10:39:53.394Z", "users": [1], "population": 49175, "slug": "radomsko-pl", "name": "Radomsko"}, "model": "locations.location", "pk": 3087497}, {"fields": {"kind": "PPLA3", "description": "", "parent": 3337497, "creator": 1, "image": "img/locations/nowhere.jpg", "longitude": 18.47626, "names": [], "country_code": "PL", "latitude": 50.0502, "date_created": "2015-03-25T10:40:57.535Z", "users": [1], "population": 17479, "slug": "radlin-pl", "name": "Radlin"}, "model": "locations.location", "pk": 3087529}, {"fields": {"kind": "PPLA2", "description": "", "parent": 3337497, "creator": 1, "image": "img/locations/nowhere.jpg", "longitude": 18.21928, "names": [], "country_code": "PL", "latitude": 50.09195, "date_created": "2015-03-25T10:40:58.299Z", "users": [1], "population": 58464, "slug": "raciborz-pl", "name": "Racib\u00f3rz"}, "model": "locations.location", "pk": 3087584}, {"fields": {"kind": "PPLA3", "description": "", "parent": 3337497, "creator": 1, "image": "img/locations/nowhere.jpg", "longitude": 18.63333, "names": [], "country_code": "PL", "latitude": 50.4, "date_created": "2015-03-25T10:40:59.032Z", "users": [1], "population": 19018, "slug": "pyskowice-pl", "name": "Pyskowice"}, "model": "locations.location", "pk": 3087628}, {"fields": {"kind": "PPLA2", "description": "", "parent": 3337497, "creator": 1, "image": "img/locations/nowhere.jpg", "longitude": 18.95382, "names": [], "country_code": "PL", "latitude": 49.98037, "date_created": "2015-03-25T10:40:59.848Z", "users": [1], "population": 25288, "slug": "pszczyna-pl", "name": "Pszczyna"}, "model": "locations.location", "pk": 3087705}, {"fields": {"kind": "PPL", "description": "", "parent": 3337496, "creator": 1, "image": "img/locations/nowhere.jpg", "longitude": 18.63625, "names": [], "country_code": "PL", "latitude": 54.26217, "date_created": "2015-03-25T10:40:21.701Z", "users": [1], "population": 23618, "slug": "pruszcz-gdanski-pl", "name": "Pruszcz Gda\u0144ski"}, "model": "locations.location", "pk": 3088034}, {"fields": {"kind": "PPLA2", "description": "", "parent": 3337495, "creator": 1, "image": "img/locations/nowhere.jpg", "longitude": 17.57461, "names": [], "country_code": "PL", "latitude": 50.32124, "date_created": "2015-03-25T10:40:08.837Z", "users": [1], "population": 23343, "slug": "prudnik-pl", "name": "Prudnik"}, "model": "locations.location", "pk": 3088065}, {"fields": {"kind": "PPLA", "description": "", "parent": 3337498, "creator": 1, "image": "img/locations/nowhere.jpg", "longitude": 16.92993, "names": [], "country_code": "PL", "latitude": 52.40692, "date_created": "2015-03-25T10:41:49.539Z", "users": [1], "population": 570352, "slug": "poznan-pl", "name": "Pozna\u0144"}, "model": "locations.location", "pk": 3088171}, {"fields": {"kind": "PPLA2", "description": "", "parent": 3337492, "creator": 1, "image": "img/locations/nowhere.jpg", "longitude": 16.07261, "names": [], "country_code": "PL", "latitude": 51.50391, "date_created": "2015-03-25T10:39:39.020Z", "users": [1], "population": 21565, "slug": "polkowice-pl", "name": "Polkowice"}, "model": "locations.location", "pk": 3088435}, {"fields": {"kind": "PPLA2", "description": "", "parent": 3337499, "creator": 1, "image": "img/locations/nowhere.jpg", "longitude": 14.57182, "names": [], "country_code": "PL", "latitude": 53.55214, "date_created": "2015-03-25T10:42:41.500Z", "users": [1], "population": 34350, "slug": "police-pl", "name": "Police"}, "model": "locations.location", "pk": 3088461}, {"fields": {"kind": "PPLA2", "description": "", "parent": 858787, "creator": 1, "image": "img/locations/nowhere.jpg", "longitude": 19.70638, "names": [], "country_code": "PL", "latitude": 52.54682, "date_created": "2015-03-25T10:39:11.925Z", "users": [1], "population": 127474, "slug": "plock-pl", "name": "P\u0142ock"}, "model": "locations.location", "pk": 3088825}, {"fields": {"kind": "PPLA2", "description": "", "parent": 3337498, "creator": 1, "image": "img/locations/nowhere.jpg", "longitude": 17.78549, "names": [], "country_code": "PL", "latitude": 51.89636, "date_created": "2015-03-25T10:41:51.450Z", "users": [1], "population": 17640, "slug": "pleszew-pl", "name": "Pleszew"}, "model": "locations.location", "pk": 3088848}, {"fields": {"kind": "PPLA2", "description": "", "parent": 3337493, "creator": 1, "image": "img/locations/nowhere.jpg", "longitude": 19.70321, "names": [], "country_code": "PL", "latitude": 51.40547, "date_created": "2015-03-25T10:39:53.929Z", "users": [1], "population": 80128, "slug": "piotrkow-trybunalski-pl", "name": "Piotrk\u00f3w Trybunalski"}, "model": "locations.location", "pk": 3088972}, {"fields": {"kind": "PPLA2", "description": "", "parent": 3337498, "creator": 1, "image": "img/locations/nowhere.jpg", "longitude": 16.73782, "names": [], "country_code": "PL", "latitude": 53.15145, "date_created": "2015-03-25T10:41:53.377Z", "users": [1], "population": 75532, "slug": "pila-pl", "name": "Pi\u0142a"}, "model": "locations.location", "pk": 3089033}, {"fields": {"kind": "PPLA2", "description": "", "parent": 3337497, "creator": 1, "image": "img/locations/nowhere.jpg", "longitude": 18.92653, "names": [], "country_code": "PL", "latitude": 50.38017, "date_created": "2015-03-25T10:41:00.777Z", "users": [1], "population": 59757, "slug": "piekary-slaskie-pl", "name": "Piekary \u015al\u0105skie"}, "model": "locations.location", "pk": 3089125}, {"fields": {"kind": "PPLA2", "description": "", "parent": 3337493, "creator": 1, "image": "img/locations/nowhere.jpg", "longitude": 19.35473, "names": [], "country_code": "PL", "latitude": 51.66446, "date_created": "2015-03-25T10:39:54.465Z", "users": [1], "population": 70542, "slug": "pabianice-pl", "name": "Pabianice"}, "model": "locations.location", "pk": 3089578}, {"fields": {"kind": "PPLA3", "description": "", "parent": 3337493, "creator": 1, "image": "img/locations/nowhere.jpg", "longitude": 19.29139, "names": [], "country_code": "PL", "latitude": 51.96336, "date_created": "2015-03-25T10:39:55.010Z", "users": [1], "population": 20608, "slug": "ozorkow-pl", "name": "Ozork\u00f3w"}, "model": "locations.location", "pk": 3089582}, {"fields": {"kind": "PPL", "description": "", "parent": 858786, "creator": 1, "image": "img/locations/nowhere.jpg", "longitude": 19.21037, "names": [], "country_code": "PL", "latitude": 50.03437, "date_created": "2015-03-25T10:38:59.277Z", "users": [1], "population": 41143, "slug": "oswiecim-pl", "name": "O\u015bwi\u0119cim"}, "model": "locations.location", "pk": 3089658}, {"fields": {"kind": "PPLA2", "description": "", "parent": 3337498, "creator": 1, "image": "img/locations/nowhere.jpg", "longitude": 17.80686, "names": [], "country_code": "PL", "latitude": 51.65501, "date_created": "2015-03-25T10:41:54.499Z", "users": [1], "population": 72898, "slug": "ostrow-wielkopolski-pl", "name": "Ostr\u00f3w Wielkopolski"}, "model": "locations.location", "pk": 3089684}, {"fields": {"kind": "PPLA2", "description": "", "parent": 858791, "creator": 1, "image": "img/locations/nowhere.jpg", "longitude": 19.96486, "names": [], "country_code": "PL", "latitude": 53.69671, "date_created": "2015-03-25T10:39:33.094Z", "users": [1], "population": 33524, "slug": "ostroda-pl", "name": "Ostr\u00f3da"}, "model": "locations.location", "pk": 3089779}, {"fields": {"kind": "PPLA3", "description": "", "parent": 3337497, "creator": 1, "image": "img/locations/nowhere.jpg", "longitude": 18.77924, "names": [], "country_code": "PL", "latitude": 50.15595, "date_created": "2015-03-25T10:41:01.604Z", "users": [1], "population": 18438, "slug": "orzesze-pl", "name": "Orzesze"}, "model": "locations.location", "pk": 3089965}, {"fields": {"kind": "PPLA", "description": "", "parent": 3337495, "creator": 1, "image": "img/locations/nowhere.jpg", "longitude": 17.92532, "names": [], "country_code": "PL", "latitude": 50.67212, "date_created": "2015-03-25T10:40:09.578Z", "users": [1], "population": 127676, "slug": "opole-pl", "name": "Opole"}, "model": "locations.location", "pk": 3090048}, {"fields": {"kind": "PPLA2", "description": "", "parent": 858786, "creator": 1, "image": "img/locations/nowhere.jpg", "longitude": 19.56503, "names": [], "country_code": "PL", "latitude": 50.2813, "date_created": "2015-03-25T10:38:59.431Z", "users": [1], "population": 37744, "slug": "olkusz-pl", "name": "Olkusz"}, "model": "locations.location", "pk": 3090146}, {"fields": {"kind": "PPL", "description": "", "parent": 3337492, "creator": 1, "image": "img/locations/nowhere.jpg", "longitude": 17.38986, "names": [], "country_code": "PL", "latitude": 51.21338, "date_created": "2015-03-25T10:39:39.506Z", "users": [1], "population": 36956, "slug": "olesnica-pl", "name": "Ole\u015bnica"}, "model": "locations.location", "pk": 3090170}, {"fields": {"kind": "PPL", "description": "", "parent": 3337492, "creator": 1, "image": "img/locations/nowhere.jpg", "longitude": 17.2926, "names": [], "country_code": "PL", "latitude": 50.9466, "date_created": "2015-03-25T10:39:40.002Z", "users": [1], "population": 30898, "slug": "olawa-pl", "name": "O\u0142awa"}, "model": "locations.location", "pk": 3090205}, {"fields": {"kind": "PPLA3", "description": "", "parent": 3337498, "creator": 1, "image": "img/locations/nowhere.jpg", "longitude": 16.81406, "names": [], "country_code": "PL", "latitude": 52.64739, "date_created": "2015-03-25T10:41:55.436Z", "users": [1], "population": 17915, "slug": "oborniki-pl", "name": "Oborniki"}, "model": "locations.location", "pk": 3090403}, {"fields": {"kind": "PPL", "description": "", "parent": 3337495, "creator": 1, "image": "img/locations/nowhere.jpg", "longitude": 17.31308, "names": [], "country_code": "PL", "latitude": 50.4575, "date_created": "2015-03-25T10:40:10.400Z", "users": [1], "population": 47954, "slug": "nysa-zamlynie-pl", "name": "Nysa Zam\u0142ynie"}, "model": "locations.location", "pk": 3090433}, {"fields": {"kind": "PPLA2", "description": "", "parent": 3337495, "creator": 1, "image": "img/locations/nowhere.jpg", "longitude": 17.33437, "names": [], "country_code": "PL", "latitude": 50.47379, "date_created": "2015-03-25T10:40:11.167Z", "users": [1], "population": 47283, "slug": "nysa-pl", "name": "Nysa"}, "model": "locations.location", "pk": 3090436}, {"fields": {"kind": "PPLA3", "description": "", "parent": 3337498, "creator": 1, "image": "img/locations/nowhere.jpg", "longitude": 16.12844, "names": [], "country_code": "PL", "latitude": 52.3195, "date_created": "2015-03-25T10:41:56.581Z", "users": [1], "population": 15179, "slug": "nowy-tomysl-pl", "name": "Nowy Tomy\u015bl"}, "model": "locations.location", "pk": 3090452}, {"fields": {"kind": "PPLA3", "description": "", "parent": 3337499, "creator": 1, "image": "img/locations/nowhere.jpg", "longitude": 15.1163, "names": [], "country_code": "PL", "latitude": 53.67437, "date_created": "2015-03-25T10:42:42.897Z", "users": [1], "population": 16703, "slug": "nowogard-pl", "name": "Nowogard"}, "model": "locations.location", "pk": 3090558}, {"fields": {"kind": "PPLA2", "description": "", "parent": 3337494, "creator": 1, "image": "img/locations/nowhere.jpg", "longitude": 15.71702, "names": [], "country_code": "PL", "latitude": 51.80333, "date_created": "2015-03-25T10:40:05.005Z", "users": [1], "population": 40354, "slug": "nowa-sol-pl", "name": "Nowa S\u00f3l"}, "model": "locations.location", "pk": 3090764}, {"fields": {"kind": "PPL", "description": "", "parent": 3337492, "creator": 1, "image": "img/locations/nowhere.jpg", "longitude": 16.50164, "names": [], "country_code": "PL", "latitude": 50.58008, "date_created": "2015-03-25T10:39:40.536Z", "users": [1], "population": 24753, "slug": "nowa-ruda-pl", "name": "Nowa Ruda"}, "model": "locations.location", "pk": 3090768}, {"fields": {"kind": "PPLA2", "description": "", "parent": 3337495, "creator": 1, "image": "img/locations/nowhere.jpg", "longitude": 17.72284, "names": [], "country_code": "PL", "latitude": 51.07592, "date_created": "2015-03-25T10:40:11.901Z", "users": [1], "population": 16376, "slug": "namyslow-pl", "name": "Namys\u0142\u00f3w"}, "model": "locations.location", "pk": 3091141}, {"fields": {"kind": "PPLA3", "description": "", "parent": 3337500, "creator": 1, "image": "img/locations/nowhere.jpg", "longitude": 17.60181, "names": [], "country_code": "PL", "latitude": 53.14214, "date_created": "2015-03-25T10:52:01.162Z", "users": [1], "population": 19565, "slug": "naklo-nad-notecia-pl", "name": "Nak\u0142o nad Noteci\u0105"}, "model": "locations.location", "pk": 3091150}, {"fields": {"kind": "PPLA3", "description": "", "parent": 3337497, "creator": 1, "image": "img/locations/nowhere.jpg", "longitude": 19.32461, "names": [], "country_code": "PL", "latitude": 50.5752, "date_created": "2015-03-25T10:41:02.482Z", "users": [1], "population": 33273, "slug": "myszkow-pl", "name": "Myszk\u00f3w"}, "model": "locations.location", "pk": 3091217}, {"fields": {"kind": "PPL", "description": "", "parent": 3337497, "creator": 1, "image": "img/locations/nowhere.jpg", "longitude": 19.16668, "names": [], "country_code": "PL", "latitude": 50.20745, "date_created": "2015-03-25T10:41:03.363Z", "users": [1], "population": 75281, "slug": "myslowice-pl", "name": "Mys\u0142owice"}, "model": "locations.location", "pk": 3091232}, {"fields": {"kind": "PPLA2", "description": "", "parent": 858786, "creator": 1, "image": "img/locations/nowhere.jpg", "longitude": 19.9383, "names": [], "country_code": "PL", "latitude": 49.83383, "date_created": "2015-03-25T10:38:59.580Z", "users": [1], "population": 17686, "slug": "myslenice-pl", "name": "My\u015blenice"}, "model": "locations.location", "pk": 3091256}, {"fields": {"kind": "PPLA3", "description": "", "parent": 3337497, "creator": 1, "image": "img/locations/nowhere.jpg", "longitude": 18.9041, "names": [], "country_code": "PL", "latitude": 50.17103, "date_created": "2015-03-25T10:41:04.343Z", "users": [1], "population": 38821, "slug": "mikolow-pl", "name": "Miko\u0142\u00f3w"}, "model": "locations.location", "pk": 3091831}, {"fields": {"kind": "PPLA2", "description": "", "parent": 3337494, "creator": 1, "image": "img/locations/nowhere.jpg", "longitude": 15.57801, "names": [], "country_code": "PL", "latitude": 52.44461, "date_created": "2015-03-25T10:40:05.698Z", "users": [1], "population": 18669, "slug": "miedzyrzecz-pl", "name": "Mi\u0119dzyrzecz"}, "model": "locations.location", "pk": 3091969}, {"fields": {"kind": "PPL", "description": "", "parent": 3337496, "creator": 1, "image": "img/locations/nowhere.jpg", "longitude": 19.0266, "names": [], "country_code": "PL", "latitude": 54.03591, "date_created": "2015-03-25T10:40:22.467Z", "users": [1], "population": 38655, "slug": "malbork-pl", "name": "Malbork"}, "model": "locations.location", "pk": 3092472}, {"fields": {"kind": "PPLA3", "description": "", "parent": 3337498, "creator": 1, "image": "img/locations/nowhere.jpg", "longitude": 16.89267, "names": [], "country_code": "PL", "latitude": 52.34705, "date_created": "2015-03-25T10:41:59.951Z", "users": [1], "population": 26431, "slug": "lubon-pl", "name": "Lubo\u0144"}, "model": "locations.location", "pk": 3092856}, {"fields": {"kind": "PPL", "description": "", "parent": 3337497, "creator": 1, "image": "img/locations/nowhere.jpg", "longitude": 18.6844, "names": [], "country_code": "PL", "latitude": 50.66897, "date_created": "2015-03-25T10:41:05.325Z", "users": [1], "population": 24133, "slug": "lubliniec-pl", "name": "Lubliniec"}, "model": "locations.location", "pk": 3092906}, {"fields": {"kind": "PPLA2", "description": "", "parent": 3337492, "creator": 1, "image": "img/locations/nowhere.jpg", "longitude": 16.20149, "names": [], "country_code": "PL", "latitude": 51.40089, "date_created": "2015-03-25T10:39:41.047Z", "users": [1], "population": 77532, "slug": "lubin-pl", "name": "Lubin"}, "model": "locations.location", "pk": 3092931}, {"fields": {"kind": "PPLA3", "description": "", "parent": 3337492, "creator": 1, "image": "img/locations/nowhere.jpg", "longitude": 15.28768, "names": [], "country_code": "PL", "latitude": 51.12014, "date_created": "2015-03-25T10:39:41.592Z", "users": [1], "population": 22245, "slug": "luban-pl", "name": "Luba\u0144"}, "model": "locations.location", "pk": 3093040}, {"fields": {"kind": "PPLA2", "description": "", "parent": 3337493, "creator": 1, "image": "img/locations/nowhere.jpg", "longitude": 19.94525, "names": [], "country_code": "PL", "latitude": 52.10714, "date_created": "2015-03-25T10:39:55.584Z", "users": [1], "population": 29809, "slug": "lowicz-pl", "name": "\u0141owicz"}, "model": "locations.location", "pk": 3093066}, {"fields": {"kind": "PPLA", "description": "", "parent": 3337493, "creator": 1, "image": "img/locations/nowhere.jpg", "longitude": 19.46667, "names": [], "country_code": "PL", "latitude": 51.75, "date_created": "2015-03-25T10:39:56.135Z", "users": [1], "population": 768755, "slug": "lodz-pl", "name": "\u0141\u00f3d\u017a"}, "model": "locations.location", "pk": 3093133}, {"fields": {"kind": "PPLA3", "description": "", "parent": 858786, "creator": 1, "image": "img/locations/nowhere.jpg", "longitude": 19.31568, "names": [], "country_code": "PL", "latitude": 50.10396, "date_created": "2015-03-25T10:38:59.729Z", "users": [1], "population": 17834, "slug": "libiaz-pl", "name": "Libi\u0105\u017c"}, "model": "locations.location", "pk": 3093457}, {"fields": {"kind": "PPLA2", "description": "", "parent": 3337498, "creator": 1, "image": "img/locations/nowhere.jpg", "longitude": 16.57494, "names": [], "country_code": "PL", "latitude": 51.84034, "date_created": "2015-03-25T10:42:05.842Z", "users": [1], "population": 63565, "slug": "leszno-pl", "name": "Leszno"}, "model": "locations.location", "pk": 3093524}, {"fields": {"kind": "PPLA3", "description": "", "parent": 3337492, "creator": 1, "image": "img/locations/nowhere.jpg", "longitude": 16.1619, "names": [], "country_code": "PL", "latitude": 51.21006, "date_created": "2015-03-25T10:39:42.245Z", "users": [1], "population": 106033, "slug": "legnica-pl", "name": "Legnica"}, "model": "locations.location", "pk": 3093692}, {"fields": {"kind": "PPLA3", "description": "", "parent": 3337497, "creator": 1, "image": "img/locations/nowhere.jpg", "longitude": 19.13149, "names": [], "country_code": "PL", "latitude": 50.14264, "date_created": "2015-03-25T10:41:06.410Z", "users": [1], "population": 16305, "slug": "ledziny-pl", "name": "L\u0119dziny"}, "model": "locations.location", "pk": 3093708}, {"fields": {"kind": "PPLA2", "description": "", "parent": 3337493, "creator": 1, "image": "img/locations/nowhere.jpg", "longitude": 19.19972, "names": [], "country_code": "PL", "latitude": 52.05959, "date_created": "2015-03-25T10:39:56.680Z", "users": [1], "population": 15528, "slug": "leczyca-pl", "name": "\u0141\u0119czyca"}, "model": "locations.location", "pk": 3093726}, {"fields": {"kind": "PPLA3", "description": "", "parent": 3337496, "creator": 1, "image": "img/locations/nowhere.jpg", "longitude": 17.75012, "names": [], "country_code": "PL", "latitude": 54.53921, "date_created": "2015-03-25T10:40:23.184Z", "users": [1], "population": 35161, "slug": "lebork-pl", "name": "L\u0119bork"}, "model": "locations.location", "pk": 3093739}, {"fields": {"kind": "PPLA3", "description": "", "parent": 3337497, "creator": 1, "image": "img/locations/nowhere.jpg", "longitude": 18.84215, "names": [], "country_code": "PL", "latitude": 50.14952, "date_created": "2015-03-25T10:41:07.615Z", "users": [1], "population": 21983, "slug": "laziska-gorne-pl", "name": "\u0141aziska G\u00f3rne"}, "model": "locations.location", "pk": 3093785}, {"fields": {"kind": "PPLA2", "description": "", "parent": 3337493, "creator": 1, "image": "img/locations/nowhere.jpg", "longitude": 19.13278, "names": [], "country_code": "PL", "latitude": 51.59056, "date_created": "2015-03-25T10:39:57.238Z", "users": [1], "population": 18577, "slug": "lask-pl", "name": "\u0141ask"}, "model": "locations.location", "pk": 3093902}, {"fields": {"kind": "PPLA3", "description": "", "parent": 3337496, "creator": 1, "image": "img/locations/nowhere.jpg", "longitude": 18.93114, "names": [], "country_code": "PL", "latitude": 53.72495, "date_created": "2015-03-25T10:40:24.071Z", "users": [1], "population": 37601, "slug": "kwidzyn-pl", "name": "Kwidzyn"}, "model": "locations.location", "pk": 3094086}, {"fields": {"kind": "PPLA2", "description": "", "parent": 3337493, "creator": 1, "image": "img/locations/nowhere.jpg", "longitude": 19.36409, "names": [], "country_code": "PL", "latitude": 52.23064, "date_created": "2015-03-25T10:39:57.807Z", "users": [1], "population": 48323, "slug": "kutno-pl", "name": "Kutno"}, "model": "locations.location", "pk": 3094170}, {"fields": {"kind": "PPLA3", "description": "", "parent": 3337498, "creator": 1, "image": "img/locations/nowhere.jpg", "longitude": 17.43738, "names": [], "country_code": "PL", "latitude": 51.69868, "date_created": "2015-03-25T10:42:08.756Z", "users": [1], "population": 29231, "slug": "krotoszyn-pl", "name": "Krotoszyn"}, "model": "locations.location", "pk": 3094625}, {"fields": {"kind": "PPLA2", "description": "", "parent": 3337495, "creator": 1, "image": "img/locations/nowhere.jpg", "longitude": 17.96539, "names": [], "country_code": "PL", "latitude": 50.47515, "date_created": "2015-03-25T10:40:12.706Z", "users": [1], "population": 18275, "slug": "krapkowice-pl", "name": "Krapkowice"}, "model": "locations.location", "pk": 3094788}, {"fields": {"kind": "PPLA", "description": "", "parent": 858786, "creator": 1, "image": "img/locations/nowhere.jpg", "longitude": 19.93658, "names": [], "country_code": "PL", "latitude": 50.06143, "date_created": "2015-03-25T10:38:59.906Z", "users": [1], "population": 755050, "slug": "krakow-pl", "name": "Krak\u00f3w"}, "model": "locations.location", "pk": 3094802}, {"fields": {"kind": "PPLA2", "description": "", "parent": 3337499, "creator": 1, "image": "img/locations/nowhere.jpg", "longitude": 16.17222, "names": [], "country_code": "PL", "latitude": 54.19438, "date_created": "2015-03-25T10:42:44.767Z", "users": [1], "population": 107450, "slug": "koszalin-pl", "name": "Koszalin"}, "model": "locations.location", "pk": 3095049}, {"fields": {"kind": "PPL", "description": "", "parent": 3337494, "creator": 1, "image": "img/locations/nowhere.jpg", "longitude": 14.64953, "names": [], "country_code": "PL", "latitude": 52.58713, "date_created": "2015-03-25T10:40:06.373Z", "users": [1], "population": 18099, "slug": "kostrzyn-nad-odra-pl", "name": "Kostrzyn nad Odr\u0105"}, "model": "locations.location", "pk": 3095057}, {"fields": {"kind": "PPL", "description": "", "parent": 3337496, "creator": 1, "image": "img/locations/nowhere.jpg", "longitude": 17.98119, "names": [], "country_code": "PL", "latitude": 54.12226, "date_created": "2015-03-25T10:40:25.318Z", "users": [1], "population": 23361, "slug": "koscierzyna-pl", "name": "Ko\u015bcierzyna"}, "model": "locations.location", "pk": 3095126}, {"fields": {"kind": "PPLA3", "description": "", "parent": 3337498, "creator": 1, "image": "img/locations/nowhere.jpg", "longitude": 16.64866, "names": [], "country_code": "PL", "latitude": 52.08829, "date_created": "2015-03-25T10:42:11.139Z", "users": [1], "population": 24096, "slug": "koscian-pl", "name": "Ko\u015bcian"}, "model": "locations.location", "pk": 3095151}, {"fields": {"kind": "PPL", "description": "", "parent": 3337493, "creator": 1, "image": "img/locations/nowhere.jpg", "longitude": 19.32564, "names": [], "country_code": "PL", "latitude": 51.74776, "date_created": "2015-03-25T10:39:58.392Z", "users": [1], "population": 17415, "slug": "konstantynow-lodzki-pl", "name": "Konstantyn\u00f3w \u0141\u00f3dzki"}, "model": "locations.location", "pk": 3095277}, {"fields": {"kind": "PPL", "description": "", "parent": 3337498, "creator": 1, "image": "img/locations/nowhere.jpg", "longitude": 18.25121, "names": [], "country_code": "PL", "latitude": 52.22338, "date_created": "2015-03-25T10:42:12.614Z", "users": [1], "population": 81258, "slug": "konin-pl", "name": "Konin"}, "model": "locations.location", "pk": 3095321}, {"fields": {"kind": "PPLA3", "description": "", "parent": 3337499, "creator": 1, "image": "img/locations/nowhere.jpg", "longitude": 15.58342, "names": [], "country_code": "PL", "latitude": 54.17565, "date_created": "2015-03-25T10:42:47.911Z", "users": [], "population": 44377, "slug": "kolobrzeg-pl", "name": "Ko\u0142obrzeg"}, "model": "locations.location", "pk": 3095795}, {"fields": {"kind": "PPLA2", "description": "", "parent": 3337498, "creator": 1, "image": "img/locations/nowhere.jpg", "longitude": 18.63865, "names": [], "country_code": "PL", "latitude": 52.20024, "date_created": "2015-03-25T10:42:14.353Z", "users": [1], "population": 23493, "slug": "kolo-pl", "name": "Ko\u0142o"}, "model": "locations.location", "pk": 3095797}, {"fields": {"kind": "PPLA3", "description": "", "parent": 3337497, "creator": 1, "image": "img/locations/nowhere.jpg", "longitude": 18.65067, "names": [], "country_code": "PL", "latitude": 50.21971, "date_created": "2015-03-25T10:41:09.033Z", "users": [1], "population": 39744, "slug": "knurow-pl", "name": "Knur\u00f3w"}, "model": "locations.location", "pk": 3095971}, {"fields": {"kind": "PPLA2", "description": "", "parent": 3337495, "creator": 1, "image": "img/locations/nowhere.jpg", "longitude": 18.21816, "names": [], "country_code": "PL", "latitude": 50.97281, "date_created": "2015-03-25T10:40:13.504Z", "users": [1], "population": 25978, "slug": "kluczbork-pl", "name": "Kluczbork"}, "model": "locations.location", "pk": 3096003}, {"fields": {"kind": "PPL", "description": "", "parent": 3337492, "creator": 1, "image": "img/locations/nowhere.jpg", "longitude": 16.66145, "names": [], "country_code": "PL", "latitude": 50.43488, "date_created": "2015-03-25T10:39:42.851Z", "users": [1], "population": 27941, "slug": "klodzko-pl", "name": "K\u0142odzko"}, "model": "locations.location", "pk": 3096053}, {"fields": {"kind": "PPLA3", "description": "", "parent": 858786, "creator": 1, "image": "img/locations/nowhere.jpg", "longitude": 19.22333, "names": [], "country_code": "PL", "latitude": 49.88214, "date_created": "2015-03-25T10:39:00.081Z", "users": [1], "population": 19249, "slug": "kety-pl", "name": "K\u0119ty"}, "model": "locations.location", "pk": 3096328}, {"fields": {"kind": "PPLA2", "description": "", "parent": 3337495, "creator": 1, "image": "img/locations/nowhere.jpg", "longitude": 18.22606, "names": [], "country_code": "PL", "latitude": 50.34984, "date_created": "2015-03-25T10:40:14.248Z", "users": [1], "population": 65636, "slug": "kedzierzyn-kozle-pl", "name": "K\u0119dzierzyn-Ko\u017ale"}, "model": "locations.location", "pk": 3096372}, {"fields": {"kind": "PPLA", "description": "", "parent": 3337497, "creator": 1, "image": "img/locations/nowhere.jpg", "longitude": 19.02754, "names": [], "country_code": "PL", "latitude": 50.25842, "date_created": "2015-03-25T10:41:10.422Z", "users": [1], "population": 317316, "slug": "katowice-pl", "name": "Katowice"}, "model": "locations.location", "pk": 3096472}, {"fields": {"kind": "PPL", "description": "", "parent": 3337496, "creator": 1, "image": "img/locations/nowhere.jpg", "longitude": 18.19735, "names": [], "country_code": "PL", "latitude": 54.33424, "date_created": "2015-03-25T10:40:28.919Z", "users": [1], "population": 15002, "slug": "kartuzy-pl", "name": "Kartuzy"}, "model": "locations.location", "pk": 3096525}, {"fields": {"kind": "PPLA3", "description": "", "parent": 3337492, "creator": 1, "image": "img/locations/nowhere.jpg", "longitude": 16.03037, "names": [], "country_code": "PL", "latitude": 50.78314, "date_created": "2015-03-25T10:39:43.382Z", "users": [1], "population": 21743, "slug": "kamienna-gora-pl", "name": "Kamienna G\u00f3ra"}, "model": "locations.location", "pk": 3096779}, {"fields": {"kind": "PPLA3", "description": "", "parent": 3337498, "creator": 1, "image": "img/locations/nowhere.jpg", "longitude": 18.09102, "names": [], "country_code": "PL", "latitude": 51.76109, "date_created": "2015-03-25T10:42:16.302Z", "users": [1], "population": 108759, "slug": "kalisz-pl", "name": "Kalisz"}, "model": "locations.location", "pk": 3096880}, {"fields": {"kind": "PPL", "description": "", "parent": 3337492, "creator": 1, "image": "img/locations/nowhere.jpg", "longitude": 15.72899, "names": [], "country_code": "PL", "latitude": 50.89973, "date_created": "2015-03-25T10:39:43.915Z", "users": [1], "population": 87310, "slug": "jelenia-gora-pl", "name": "Jelenia G\u00f3ra"}, "model": "locations.location", "pk": 3097257}, {"fields": {"kind": "PPLA2", "description": "", "parent": 3337497, "creator": 1, "image": "img/locations/nowhere.jpg", "longitude": 19.27498, "names": [], "country_code": "PL", "latitude": 50.20528, "date_created": "2015-03-25T10:41:11.585Z", "users": [1], "population": 96541, "slug": "jaworzno-pl", "name": "Jaworzno"}, "model": "locations.location", "pk": 3097333}, {"fields": {"kind": "PPLA3", "description": "", "parent": 3337492, "creator": 1, "image": "img/locations/nowhere.jpg", "longitude": 16.19347, "names": [], "country_code": "PL", "latitude": 51.05132, "date_created": "2015-03-25T10:39:44.432Z", "users": [1], "population": 23865, "slug": "jawor-pl", "name": "Jawor"}, "model": "locations.location", "pk": 3097367}, {"fields": {"kind": "PPLA2", "description": "", "parent": 3337497, "creator": 1, "image": "img/locations/nowhere.jpg", "longitude": 18.57479, "names": [], "country_code": "PL", "latitude": 49.95542, "date_created": "2015-03-25T10:41:12.904Z", "users": [1], "population": 95813, "slug": "jastrzebie-zdroj-pl", "name": "Jastrz\u0119bie Zdr\u00f3j"}, "model": "locations.location", "pk": 3097391}, {"fields": {"kind": "PPL", "description": "", "parent": 3337498, "creator": 1, "image": "img/locations/nowhere.jpg", "longitude": 17.50256, "names": [], "country_code": "PL", "latitude": 51.97266, "date_created": "2015-03-25T10:42:18.771Z", "users": [1], "population": 25665, "slug": "jarocin-pl", "name": "Jarocin"}, "model": "locations.location", "pk": 3097528}, {"fields": {"kind": "PPLA3", "description": "", "parent": 3337500, "creator": 1, "image": "img/locations/nowhere.jpg", "longitude": 18.26388, "names": [], "country_code": "PL", "latitude": 52.79886, "date_created": "2015-03-25T10:52:02.070Z", "users": [1], "population": 77597, "slug": "inowroclaw-pl", "name": "Inowroc\u0142aw"}, "model": "locations.location", "pk": 3097872}, {"fields": {"kind": "PPL", "description": "", "parent": 858791, "creator": 1, "image": "img/locations/nowhere.jpg", "longitude": 19.56849, "names": [], "country_code": "PL", "latitude": 53.59601, "date_created": "2015-03-25T10:39:33.628Z", "users": [1], "population": 32557, "slug": "ilawa-pl", "name": "I\u0142awa"}, "model": "locations.location", "pk": 3097902},